rosbagTimestamp,header,seq,stamp,secs,nsecs,frame_id,brake_torque_request,brake_torque_actual,vehicle_speed
1541191795415952898,,29531,,1541191795,415707201,'',0.0,0.0,0.0
1541191795436409463,,29532,,1541191795,436254475,'',0.0,0.0,0.0
1541191795456041538,,29533,,1541191795,455738855,'',0.0,0.0,0.0
1541191795476523418,,29534,,1541191795,476256809,'',0.0,0.0,0.0
1541191795495881709,,29535,,1541191795,495712464,'',0.0,0.0,0.0
1541191795515948733,,29536,,1541191795,515717553,'',0.0,0.0,0.0
1541191795536476169,,29537,,1541191795,536315545,'',0.0,0.0,0.0
1541191795556217689,,29538,,1541191795,555767963,'',0.0,0.0,0.0
1541191795576683728,,29539,,1541191795,576438564,'',0.0,0.0,0.0
1541191795595891954,,29540,,1541191795,595718717,'',0.0,0.0,0.0
1541191795615999950,,29541,,1541191795,615746277,'',0.0,0.0,0.0
1541191795636758780,,29542,,1541191795,636545220,'',0.0,0.0,0.0
1541191795656032450,,29543,,1541191795,655768963,'',0.0,0.0,0.0
1541191795676286084,,29544,,1541191795,676106313,'',0.0,0.0,0.0
1541191795695895462,,29545,,1541191795,695753103,'',0.0,0.0,0.0
1541191795715897274,,29546,,1541191795,715733174,'',0.0,0.0,0.0
1541191795736349658,,29547,,1541191795,736163889,'',0.0,0.0,0.0
1541191795756061362,,29548,,1541191795,755780729,'',0.0,0.0,0.0
1541191795776535290,,29549,,1541191795,776273065,'',0.0,0.0,0.0
1541191795795898366,,29550,,1541191795,795749446,'',0.0,0.0,0.0
1541191795815967005,,29551,,1541191795,815759089,'',0.0,0.0,0.0
1541191795836265343,,29552,,1541191795,836101858,'',0.0,0.0,0.0
1541191795856032573,,29553,,1541191795,855772127,'',0.0,0.0,0.0
1541191795876536748,,29554,,1541191795,876249330,'',0.0,0.0,0.0
1541191795895927969,,29555,,1541191795,895789142,'',0.0,0.0,0.0
1541191795915976044,,29556,,1541191795,915759460,'',0.0,0.0,0.0
1541191795936153951,,29557,,1541191795,936005581,'',0.0,0.0,0.0
1541191795956188116,,29558,,1541191795,955832317,'',0.0,0.0,0.0
1541191795976416634,,29559,,1541191795,976253814,'',0.0,0.0,0.0
1541191795995963084,,29560,,1541191795,995790945,'',0.0,0.0,0.0
1541191796016007061,,29561,,1541191796,15824691,'',0.0,0.0,0.0
1541191796036078613,,29562,,1541191796,35923750,'',0.0,0.0,0.0
1541191796056235834,,29563,,1541191796,55849642,'',0.0,0.0,0.0
1541191796076401853,,29564,,1541191796,76265024,'',0.0,0.0,0.0
1541191796095915254,,29565,,1541191796,95778449,'',0.0,0.0,0.0
1541191796116085288,,29566,,1541191796,115809324,'',0.0,0.0,0.0
1541191796136086300,,29567,,1541191796,135918816,'',0.0,0.0,0.0
1541191796156094555,,29568,,1541191796,155807275,'',0.0,0.0,0.0
1541191796175844895,,29569,,1541191796,175714871,'',0.0,0.0,0.0
1541191796195912315,,29570,,1541191796,195768386,'',0.0,0.0,0.0
1541191796216094039,,29571,,1541191796,215828535,'',0.0,0.0,0.0
1541191796236003406,,29572,,1541191796,235820915,'',0.0,0.0,0.0
1541191796256017381,,29573,,1541191796,255794561,'',0.0,0.0,0.0
1541191796275829475,,29574,,1541191796,275659718,'',0.0,0.0,0.0
1541191796296033866,,29575,,1541191796,295843299,'',0.0,0.0,0.0
1541191796315963235,,29576,,1541191796,315789191,'',0.0,0.0,0.0
1541191796335947516,,29577,,1541191796,335769691,'',0.0,0.0,0.0
1541191796356034880,,29578,,1541191796,355826723,'',0.0,0.0,0.0
1541191796376304748,,29579,,1541191796,376132733,'',0.0,0.0,0.0
1541191796395975864,,29580,,1541191796,395799438,'',0.0,0.0,0.0
1541191796416012310,,29581,,1541191796,415818496,'',0.0,0.0,0.0
1541191796435940452,,29582,,1541191796,435746092,'',0.0,0.0,0.0
1541191796456088675,,29583,,1541191796,455826725,'',0.0,0.0,0.0
1541191796476044816,,29584,,1541191796,475820538,'',0.0,0.0,0.0
1541191796496047540,,29585,,1541191796,495832938,'',0.0,0.0,0.0
1541191796515994562,,29586,,1541191796,515794441,'',0.0,0.0,0.0
1541191796536126270,,29587,,1541191796,535882712,'',0.0,0.0,0.0
1541191796556075998,,29588,,1541191796,555871219,'',0.0,0.0,0.0
1541191796575825185,,29589,,1541191796,575698029,'',0.0,0.0,0.0
1541191796595990148,,29590,,1541191796,595823060,'',0.0,0.0,0.0
1541191796615973191,,29591,,1541191796,615826324,'',0.0,0.0,0.0
1541191796636019318,,29592,,1541191796,635853826,'',0.0,0.0,0.0
1541191796656069807,,29593,,1541191796,655859933,'',0.0,0.0,0.0
1541191796675782730,,29594,,1541191796,675638462,'',0.0,0.0,0.0
1541191796696058327,,29595,,1541191796,695892421,'',0.0,0.0,0.0
1541191796716077052,,29596,,1541191796,715916356,'',0.0,0.0,0.0
1541191796736035248,,29597,,1541191796,735848132,'',0.0,0.0,0.0
1541191796756132960,,29598,,1541191796,755883181,'',0.0,0.0,0.0
1541191796776705789,,29599,,1541191796,776530148,'',0.0,0.0,0.0
1541191796796034365,,29600,,1541191796,795837916,'',0.0,0.0,0.0
1541191796816095579,,29601,,1541191796,815912105,'',0.0,0.0,0.0
1541191796835993091,,29602,,1541191796,835847136,'',0.0,0.0,0.0
1541191796856060996,,29603,,1541191796,855864799,'',0.0,0.0,0.0
1541191796876057331,,29604,,1541191796,875900517,'',0.0,0.0,0.0
1541191796896019041,,29605,,1541191796,895848481,'',0.0,0.0,0.0
1541191796916019279,,29606,,1541191796,915848817,'',0.0,0.0,0.0
1541191796936050763,,29607,,1541191796,935886485,'',0.0,0.0,0.0
1541191796956044150,,29608,,1541191796,955893436,'',0.0,0.0,0.0
1541191796976345664,,29609,,1541191796,976203538,'',0.0,0.0,0.0
1541191796995926871,,29610,,1541191796,995792782,'',0.0,0.0,0.0
1541191797016132210,,29611,,1541191797,15899289,'',0.0,0.0,0.0
1541191797036068922,,29612,,1541191797,35892835,'',0.0,0.0,0.0
1541191797055998325,,29613,,1541191797,55840291,'',0.0,0.0,0.0
1541191797076064626,,29614,,1541191797,75889500,'',0.0,0.0,0.0
1541191797096039833,,29615,,1541191797,95879276,'',0.0,0.0,0.0
1541191797116035606,,29616,,1541191797,115888625,'',0.0,0.0,0.0
1541191797136020068,,29617,,1541191797,135871481,'',0.0,0.0,0.0
1541191797156033167,,29618,,1541191797,155885933,'',0.0,0.0,0.0
1541191797175730205,,29619,,1541191797,175591421,'',0.0,0.0,0.0
1541191797195945217,,29620,,1541191797,195797337,'',0.0,0.0,0.0
1541191797216020311,,29621,,1541191797,215855152,'',0.0,0.0,0.0
1541191797236071122,,29622,,1541191797,235898466,'',0.0,0.0,0.0
1541191797255959010,,29623,,1541191797,255814849,'',0.0,0.0,0.0
1541191797276293675,,29624,,1541191797,276179276,'',0.0,0.0,0.0
1541191797296035085,,29625,,1541191797,295891110,'',0.0,0.0,0.0
1541191797316010521,,29626,,1541191797,315823406,'',0.0,0.0,0.0
1541191797336038470,,29627,,1541191797,335866882,'',0.0,0.0,0.0
1541191797355997108,,29628,,1541191797,355824178,'',0.0,0.0,0.0
1541191797376092578,,29629,,1541191797,375937657,'',0.0,0.0,0.0
1541191797395986601,,29630,,1541191797,395820415,'',0.0,0.0,0.0
1541191797415982789,,29631,,1541191797,415779537,'',0.0,0.0,0.0
1541191797436166526,,29632,,1541191797,435937270,'',0.0,0.0,0.0
1541191797455989547,,29633,,1541191797,455825190,'',0.0,0.0,0.0
1541191797476055801,,29634,,1541191797,475853246,'',0.0,0.0,0.0
1541191797496017999,,29635,,1541191797,495788130,'',0.0,0.0,0.0
1541191797515981476,,29636,,1541191797,515820059,'',0.0,0.0,0.0
1541191797536027257,,29637,,1541191797,535827859,'',0.0,0.0,0.0
1541191797556025663,,29638,,1541191797,555809216,'',0.0,0.0,0.0
1541191797576147797,,29639,,1541191797,575955446,'',0.0,0.0,0.0
1541191797596009191,,29640,,1541191797,595818388,'',0.0,0.0,0.0
1541191797616072725,,29641,,1541191797,615851953,'',0.0,0.0,0.0
1541191797636107466,,29642,,1541191797,635958489,'',0.0,0.0,0.0
1541191797656061329,,29643,,1541191797,655826515,'',0.0,0.0,0.0
1541191797676383551,,29644,,1541191797,676231169,'',0.0,0.0,0.0
1541191797695946147,,29645,,1541191797,695739957,'',0.0,0.0,0.0
1541191797716066370,,29646,,1541191797,715822158,'',0.0,0.0,0.0
1541191797736012156,,29647,,1541191797,735819483,'',0.0,0.0,0.0
1541191797755980141,,29648,,1541191797,755793161,'',0.0,0.0,0.0
1541191797776000256,,29649,,1541191797,775843194,'',0.0,0.0,0.0
1541191797796000755,,29650,,1541191797,795852326,'',0.0,0.0,0.0
1541191797815961593,,29651,,1541191797,815803720,'',0.0,0.0,0.0
1541191797835949064,,29652,,1541191797,835810930,'',0.0,0.0,0.0
1541191797856035363,,29653,,1541191797,855827764,'',0.0,0.0,0.0
1541191797875970130,,29654,,1541191797,875801364,'',0.0,0.0,0.0
1541191797895941893,,29655,,1541191797,895771197,'',0.0,0.0,0.0
1541191797915876873,,29656,,1541191797,915741072,'',0.0,0.0,0.0
1541191797936117727,,29657,,1541191797,935940577,'',0.0,0.0,0.0
1541191797955950646,,29658,,1541191797,955749534,'',0.0,0.0,0.0
1541191797975935169,,29659,,1541191797,975794827,'',0.0,0.0,0.0
1541191797995939084,,29660,,1541191797,995824037,'',0.0,0.0,0.0
1541191798015949234,,29661,,1541191798,15794882,'',0.0,0.0,0.0
1541191798035939555,,29662,,1541191798,35795962,'',0.0,0.0,0.0
1541191798055977041,,29663,,1541191798,55789381,'',0.0,0.0,0.0
1541191798076021291,,29664,,1541191798,75894164,'',0.0,0.0,0.0
1541191798095883328,,29665,,1541191798,95728289,'',0.0,0.0,0.0
1541191798115890907,,29666,,1541191798,115742218,'',0.0,0.0,0.0
1541191798136156606,,29667,,1541191798,135908656,'',0.0,0.0,0.0
1541191798155999878,,29668,,1541191798,155811274,'',0.0,0.0,0.0
1541191798176306955,,29669,,1541191798,176181322,'',0.0,0.0,0.0
1541191798195892342,,29670,,1541191798,195752529,'',0.0,0.0,0.0
1541191798215916627,,29671,,1541191798,215775343,'',0.0,0.0,0.0
1541191798235956998,,29672,,1541191798,235775786,'',0.0,0.0,0.0
1541191798255860691,,29673,,1541191798,255713374,'',0.0,0.0,0.0
1541191798276024843,,29674,,1541191798,275880415,'',0.0,0.0,0.0
1541191798295933399,,29675,,1541191798,295745934,'',0.0,0.0,0.0
1541191798315914864,,29676,,1541191798,315743260,'',0.0,0.0,0.0
1541191798335919489,,29677,,1541191798,335765850,'',0.0,0.0,0.0
1541191798356090224,,29678,,1541191798,355773745,'',0.0,0.0,0.0
1541191798376066508,,29679,,1541191798,375811501,'',0.0,0.0,0.0
1541191798395984167,,29680,,1541191798,395742225,'',0.0,0.0,0.0
1541191798415919336,,29681,,1541191798,415801713,'',0.0,0.0,0.0
1541191798435867515,,29682,,1541191798,435721337,'',0.0,0.0,0.0
1541191798455985175,,29683,,1541191798,455733395,'',0.0,0.0,0.0
1541191798475999759,,29684,,1541191798,475814134,'',0.0,0.0,0.0
1541191798495898082,,29685,,1541191798,495735385,'',0.0,0.0,0.0
1541191798515944812,,29686,,1541191798,515723071,'',0.0,0.0,0.0
1541191798535962734,,29687,,1541191798,535796081,'',0.0,0.0,0.0
1541191798555942777,,29688,,1541191798,555737774,'',0.0,0.0,0.0
1541191798575933499,,29689,,1541191798,575782599,'',0.0,0.0,0.0
1541191798595903593,,29690,,1541191798,595746519,'',0.0,0.0,0.0
1541191798615936744,,29691,,1541191798,615725351,'',0.0,0.0,0.0
1541191798636112687,,29692,,1541191798,635838980,'',0.0,0.0,0.0
1541191798655953618,,29693,,1541191798,655724528,'',0.0,0.0,0.0
1541191798675960382,,29694,,1541191798,675776443,'',0.0,0.0,0.0
1541191798695931730,,29695,,1541191798,695769046,'',0.0,0.0,0.0
1541191798715904915,,29696,,1541191798,715697574,'',0.0,0.0,0.0
1541191798735876320,,29697,,1541191798,735712244,'',0.0,0.0,0.0
1541191798755913125,,29698,,1541191798,755673700,'',0.0,0.0,0.0
1541191798776050292,,29699,,1541191798,775875865,'',0.0,0.0,0.0
1541191798795893485,,29700,,1541191798,795727592,'',0.0,0.0,0.0
1541191798815866065,,29701,,1541191798,815661796,'',0.0,0.0,0.0
1541191798836386377,,29702,,1541191798,836235113,'',0.0,0.0,0.0
1541191798855855156,,29703,,1541191798,855667668,'',0.0,0.0,0.0
1541191798875916770,,29704,,1541191798,875732852,'',0.0,0.0,0.0
1541191798895821550,,29705,,1541191798,895673063,'',0.0,0.0,0.0
1541191798915860669,,29706,,1541191798,915748758,'',0.0,0.0,0.0
1541191798935906178,,29707,,1541191798,935673026,'',0.0,0.0,0.0
1541191798955855035,,29708,,1541191798,955667947,'',0.0,0.0,0.0
1541191798976018310,,29709,,1541191798,975836329,'',0.0,0.0,0.0
1541191798995878813,,29710,,1541191798,995696308,'',0.0,0.0,0.0
1541191799015860569,,29711,,1541191799,15691233,'',0.0,0.0,0.0
1541191799035927922,,29712,,1541191799,35747820,'',0.0,0.0,0.0
1541191799055945043,,29713,,1541191799,55748484,'',0.0,0.0,0.0
1541191799075917113,,29714,,1541191799,75751730,'',0.0,0.0,0.0
1541191799095801547,,29715,,1541191799,95636629,'',0.0,0.0,0.0
1541191799115953145,,29716,,1541191799,115802640,'',0.0,0.0,0.0
1541191799135921463,,29717,,1541191799,135723081,'',0.0,0.0,0.0
1541191799156112176,,29718,,1541191799,155691041,'',0.0,0.0,0.0
1541191799175814699,,29719,,1541191799,175660304,'',0.0,0.0,0.0
1541191799195898469,,29720,,1541191799,195724777,'',0.0,0.0,0.0
1541191799215801280,,29721,,1541191799,215637024,'',0.0,0.0,0.0
1541191799235824717,,29722,,1541191799,235684299,'',0.0,0.0,0.0
1541191799255969581,,29723,,1541191799,255709950,'',0.0,0.0,0.0
1541191799275852814,,29724,,1541191799,275708056,'',0.0,0.0,0.0
1541191799295810342,,29725,,1541191799,295652358,'',0.0,0.0,0.0
1541191799315852411,,29726,,1541191799,315667523,'',0.0,0.0,0.0
1541191799335953996,,29727,,1541191799,335796787,'',0.0,0.0,0.0
1541191799355918053,,29728,,1541191799,355651830,'',0.0,0.0,0.0
1541191799375859062,,29729,,1541191799,375663184,'',0.0,0.0,0.0
1541191799395854847,,29730,,1541191799,395716535,'',0.0,0.0,0.0
1541191799415816017,,29731,,1541191799,415635421,'',0.0,0.0,0.0
1541191799435847818,,29732,,1541191799,435661187,'',0.0,0.0,0.0
1541191799455935225,,29733,,1541191799,455630447,'',0.0,0.0,0.0
1541191799475972888,,29734,,1541191799,475795322,'',0.0,0.0,0.0
1541191799495783933,,29735,,1541191799,495620951,'',0.0,0.0,0.0
1541191799515844585,,29736,,1541191799,515644000,'',0.0,0.0,0.0
1541191799535962224,,29737,,1541191799,535782184,'',0.0,0.0,0.0
1541191799555883436,,29738,,1541191799,555644602,'',0.0,0.0,0.0
1541191799576183653,,29739,,1541191799,576028020,'',0.0,0.0,0.0
1541191799595828212,,29740,,1541191799,595654950,'',0.0,0.0,0.0
1541191799615946087,,29741,,1541191799,615776877,'',0.0,0.0,0.0
1541191799635822888,,29742,,1541191799,635643137,'',0.0,0.0,0.0
1541191799655826587,,29743,,1541191799,655631390,'',0.0,0.0,0.0
1541191799676203724,,29744,,1541191799,676085566,'',0.0,0.0,0.0
1541191799695822420,,29745,,1541191799,695621230,'',0.0,0.0,0.0
1541191799715776606,,29746,,1541191799,715599244,'',0.0,0.0,0.0
1541191799735867971,,29747,,1541191799,735678780,'',0.0,0.0,0.0
1541191799755905193,,29748,,1541191799,755622390,'',0.0,0.0,0.0
1541191799775920611,,29749,,1541191799,775765487,'',0.0,0.0,0.0
1541191799795832710,,29750,,1541191799,795607213,'',0.0,0.0,0.0
1541191799816064085,,29751,,1541191799,815716139,'',0.0,0.0,0.0
1541191799835899910,,29752,,1541191799,835668445,'',0.0,0.0,0.0
1541191799855786896,,29753,,1541191799,855572007,'',0.0,0.0,0.0
1541191799875783869,,29754,,1541191799,875614238,'',0.0,0.0,0.0
1541191799895789813,,29755,,1541191799,895657693,'',0.0,0.0,0.0
1541191799915815133,,29756,,1541191799,915673609,'',0.0,0.0,0.0
1541191799935298058,,29757,,1541191799,935119350,'',0.0,0.0,0.0
1541191799955979328,,29758,,1541191799,955675836,'',0.0,0.0,0.0
1541191799975786514,,29759,,1541191799,975631891,'',0.0,0.0,0.0
1541191799995762709,,29760,,1541191799,995587305,'',0.0,0.0,0.0
1541191800015724235,,29761,,1541191800,15562167,'',0.0,0.0,0.0
1541191800035832461,,29762,,1541191800,35672286,'',0.0,0.0,0.0
1541191800055958985,,29763,,1541191800,55583351,'',0.0,0.0,0.0
1541191800075755781,,29764,,1541191800,75617418,'',0.0,0.0,0.0
1541191800095903926,,29765,,1541191800,95736104,'',0.0,0.0,0.0
1541191800115711702,,29766,,1541191800,115572537,'',0.0,0.0,0.0
1541191800135730680,,29767,,1541191800,135594715,'',0.0,0.0,0.0
1541191800155929398,,29768,,1541191800,155586386,'',0.0,0.0,0.0
1541191800176027861,,29769,,1541191800,175858764,'',0.0,0.0,0.0
1541191800195713630,,29770,,1541191800,195588250,'',0.0,0.0,0.0
1541191800215787485,,29771,,1541191800,215623570,'',0.0,0.0,0.0
1541191800235807029,,29772,,1541191800,235668209,'',0.0,0.0,0.0
1541191800255784624,,29773,,1541191800,255570201,'',12.0,36.0,0.0
1541191800275800230,,29774,,1541191800,275640742,'',60.0,108.0,0.0
1541191800295767839,,29775,,1541191800,295583886,'',128.0,208.0,0.0
1541191800315807015,,29776,,1541191800,315655805,'',224.0,348.0,0.0
1541191800335731521,,29777,,1541191800,335594040,'',312.0,372.0,0.0
1541191800355745624,,29778,,1541191800,355557718,'',340.0,332.0,0.0
1541191800375870362,,29779,,1541191800,375681274,'',340.0,316.0,0.0
1541191800395704885,,29780,,1541191800,395539701,'',328.0,300.0,0.0
1541191800415680739,,29781,,1541191800,415541863,'',332.0,348.0,0.0
1541191800435743995,,29782,,1541191800,435587821,'',356.0,376.0,0.0
1541191800455799818,,29783,,1541191800,455650682,'',376.0,396.0,0.0
1541191800475780375,,29784,,1541191800,475608310,'',396.0,424.0,0.0
1541191800495698214,,29785,,1541191800,495544196,'',424.0,456.0,0.0
1541191800515801697,,29786,,1541191800,515656688,'',456.0,496.0,0.0
1541191800535749656,,29787,,1541191800,535567134,'',500.0,532.0,0.0
1541191800555670908,,29788,,1541191800,555512926,'',528.0,540.0,0.0
1541191800575819130,,29789,,1541191800,575618223,'',560.0,584.0,0.0
1541191800595740887,,29790,,1541191800,595580588,'',584.0,604.0,0.0
1541191800615847055,,29791,,1541191800,615629052,'',616.0,636.0,0.0
1541191800635822335,,29792,,1541191800,635669013,'',640.0,668.0,0.0
1541191800655726345,,29793,,1541191800,655562054,'',672.0,696.0,0.0
1541191800675739038,,29794,,1541191800,675558493,'',700.0,728.0,0.0
1541191800695758625,,29795,,1541191800,695528684,'',756.0,792.0,0.0
1541191800715803851,,29796,,1541191800,715568953,'',768.0,764.0,0.0
1541191800735812977,,29797,,1541191800,735570820,'',776.0,776.0,0.0
1541191800755869657,,29798,,1541191800,755509805,'',780.0,776.0,0.0
1541191800775707060,,29799,,1541191800,775572594,'',788.0,800.0,0.0
1541191800795834261,,29800,,1541191800,795554908,'',804.0,816.0,0.0
1541191800815661868,,29801,,1541191800,815508442,'',816.0,824.0,0.0
1541191800835676770,,29802,,1541191800,835528969,'',824.0,832.0,0.0
1541191800855968682,,29803,,1541191800,855542207,'',836.0,840.0,0.0
1541191800875796062,,29804,,1541191800,875639618,'',856.0,864.0,0.0
1541191800895675349,,29805,,1541191800,895523205,'',872.0,880.0,0.0
1541191800915657096,,29806,,1541191800,915494144,'',888.0,908.0,0.0
1541191800935843242,,29807,,1541191800,935689677,'',908.0,916.0,0.0
1541191800955713636,,29808,,1541191800,955492457,'',940.0,956.0,0.0
1541191800975712767,,29809,,1541191800,975561064,'',964.0,980.0,0.0
1541191800995636300,,29810,,1541191800,995496385,'',1004.0,1032.0,0.0
1541191801015773485,,29811,,1541191801,15565710,'',1040.0,1040.0,0.0
1541191801035660189,,29812,,1541191801,35515321,'',1024.0,980.0,0.0
1541191801056054405,,29813,,1541191801,55487954,'',1012.0,972.0,0.0
1541191801075855427,,29814,,1541191801,75663471,'',1004.0,996.0,0.0
1541191801095682061,,29815,,1541191801,95488255,'',1000.0,1000.0,0.0
1541191801115688045,,29816,,1541191801,115507203,'',1000.0,1008.0,0.0
1541191801135721742,,29817,,1541191801,135524184,'',1016.0,1024.0,0.0
1541191801155763222,,29818,,1541191801,155515719,'',1024.0,1024.0,0.0
1541191801175323030,,29819,,1541191801,175146747,'',1040.0,1060.0,0.0
1541191801195670031,,29820,,1541191801,195493535,'',1048.0,1052.0,0.0
1541191801215642578,,29821,,1541191801,215510801,'',1056.0,1064.0,0.0
1541191801235691532,,29822,,1541191801,235500233,'',1068.0,1068.0,0.0
1541191801255676770,,29823,,1541191801,255476346,'',1080.0,1096.0,0.0
1541191801275675082,,29824,,1541191801,275538068,'',1104.0,1108.0,0.0
1541191801295637810,,29825,,1541191801,295502378,'',1128.0,1132.0,0.0
1541191801315662842,,29826,,1541191801,315489021,'',1176.0,1212.0,0.0
1541191801335664784,,29827,,1541191801,335470735,'',1232.0,1248.0,0.0
1541191801355666071,,29828,,1541191801,355487171,'',1236.0,1236.0,0.0
1541191801375723230,,29829,,1541191801,375565950,'',1256.0,1268.0,0.0
1541191801395615108,,29830,,1541191801,395459386,'',1288.0,1296.0,0.0
1541191801415776641,,29831,,1541191801,415543112,'',1316.0,1324.0,0.0
1541191801435757014,,29832,,1541191801,435582624,'',1344.0,1360.0,0.0
1541191801455618788,,29833,,1541191801,455436756,'',1372.0,1388.0,0.0
1541191801475658171,,29834,,1541191801,475499906,'',1408.0,1420.0,0.0
1541191801495726473,,29835,,1541191801,495579996,'',1448.0,1464.0,0.0
1541191801515631002,,29836,,1541191801,515497212,'',1480.0,1484.0,0.0
1541191801535676983,,29837,,1541191801,535526304,'',1504.0,1512.0,0.0
1541191801555723867,,29838,,1541191801,555453108,'',1536.0,1552.0,0.0
1541191801575747235,,29839,,1541191801,575584707,'',1564.0,1580.0,0.0
1541191801595660419,,29840,,1541191801,595464815,'',1620.0,1640.0,0.0
1541191801615621020,,29841,,1541191801,615500102,'',1676.0,1696.0,0.0
1541191801636153369,,29842,,1541191801,636024772,'',1728.0,1736.0,0.0
1541191801655742059,,29843,,1541191801,655461996,'',1800.0,1832.0,0.0
1541191801675670443,,29844,,1541191801,675495261,'',1888.0,1908.0,0.0
1541191801695646017,,29845,,1541191801,695466540,'',1912.0,1920.0,0.0
1541191801715917580,,29846,,1541191801,715714978,'',1964.0,1972.0,0.0
1541191801735590432,,29847,,1541191801,735431106,'',2016.0,2028.0,0.0
1541191801755701584,,29848,,1541191801,755389680,'',2072.0,2096.0,0.0
1541191801775672711,,29849,,1541191801,775556739,'',2140.0,2164.0,0.0
1541191801795573523,,29850,,1541191801,795439019,'',2196.0,2216.0,0.0
1541191801815584619,,29851,,1541191801,815442080,'',2232.0,2240.0,0.0
1541191801835658818,,29852,,1541191801,835511530,'',2260.0,2272.0,0.0
1541191801855697156,,29853,,1541191801,855482085,'',2308.0,2320.0,0.0
1541191801875595333,,29854,,1541191801,875431507,'',2340.0,2348.0,0.0
1541191801895576185,,29855,,1541191801,895395019,'',2352.0,2360.0,0.0
1541191801915597817,,29856,,1541191801,915478320,'',2376.0,2380.0,0.0
1541191801935584347,,29857,,1541191801,935474402,'',2388.0,2380.0,0.0
1541191801955624305,,29858,,1541191801,955413737,'',2400.0,2408.0,0.0
1541191801975707864,,29859,,1541191801,975502255,'',2400.0,2392.0,0.0
1541191801995620974,,29860,,1541191801,995448676,'',2404.0,2404.0,0.0
1541191802015546366,,29861,,1541191802,15410272,'',2408.0,2408.0,0.0
1541191802035672315,,29862,,1541191802,35438808,'',2436.0,2452.0,0.0
1541191802055676413,,29863,,1541191802,55437226,'',2472.0,2472.0,0.0
1541191802075627519,,29864,,1541191802,75472825,'',2464.0,2428.0,0.0
1541191802095567706,,29865,,1541191802,95411181,'',2448.0,2408.0,0.0
1541191802115548930,,29866,,1541191802,115393255,'',2428.0,2404.0,0.0
1541191802135728493,,29867,,1541191802,135503285,'',2408.0,2380.0,0.0
1541191802155631485,,29868,,1541191802,155404287,'',2396.0,2368.0,0.0
1541191802175390804,,29869,,1541191802,175225411,'',2380.0,2360.0,0.0
1541191802195633297,,29870,,1541191802,195493712,'',2372.0,2356.0,0.0
1541191802215584779,,29871,,1541191802,215457222,'',2364.0,2344.0,0.0
1541191802235560323,,29872,,1541191802,235400577,'',2356.0,2344.0,0.0
1541191802255530862,,29873,,1541191802,255399476,'',2356.0,2348.0,0.0
1541191802275652124,,29874,,1541191802,275543012,'',2348.0,2332.0,0.0
1541191802295586137,,29875,,1541191802,295413234,'',2340.0,2328.0,0.0
1541191802315524085,,29876,,1541191802,315356956,'',2332.0,2308.0,0.0
1541191802335625188,,29877,,1541191802,335501734,'',2316.0,2276.0,0.0
1541191802355592468,,29878,,1541191802,355378159,'',2296.0,2260.0,0.0
1541191802375618998,,29879,,1541191802,375459600,'',2264.0,2208.0,0.0
1541191802395510449,,29880,,1541191802,395364812,'',2236.0,2180.0,0.0
1541191802415570688,,29881,,1541191802,415411683,'',2204.0,2144.0,0.0
1541191802435590445,,29882,,1541191802,435437654,'',2180.0,2116.0,0.0
1541191802455609114,,29883,,1541191802,455392909,'',2144.0,2084.0,0.0
1541191802475671821,,29884,,1541191802,475535483,'',2124.0,2084.0,0.0
1541191802495573779,,29885,,1541191802,495415433,'',2108.0,2076.0,0.0
1541191802515696930,,29886,,1541191802,515384625,'',2088.0,2048.0,0.0
1541191802535553866,,29887,,1541191802,535406016,'',2060.0,1988.0,0.0
1541191802555775380,,29888,,1541191802,555387254,'',2028.0,1980.0,0.0
1541191802575562972,,29889,,1541191802,575405982,'',2012.0,1968.0,0.0
1541191802595527082,,29890,,1541191802,595362842,'',1992.0,1968.0,0.0
1541191802615650429,,29891,,1541191802,615484008,'',1980.0,1960.0,0.0
1541191802635577827,,29892,,1541191802,635401582,'',1968.0,1960.0,0.0
1541191802655628759,,29893,,1541191802,655388541,'',1964.0,1952.0,0.0
1541191802675555015,,29894,,1541191802,675362353,'',1956.0,1944.0,0.0
1541191802695573589,,29895,,1541191802,695420628,'',1952.0,1944.0,0.0
1541191802715509315,,29896,,1541191802,715322604,'',1944.0,1932.0,0.0
1541191802735563766,,29897,,1541191802,735392138,'',1940.0,1936.0,0.0
1541191802755583335,,29898,,1541191802,755378527,'',1952.0,1960.0,0.0
1541191802775604192,,29899,,1541191802,775408866,'',1964.0,1968.0,0.0
1541191802795564356,,29900,,1541191802,795388164,'',1964.0,1968.0,0.0
1541191802815565489,,29901,,1541191802,815417625,'',1968.0,1968.0,0.0
1541191802835615317,,29902,,1541191802,835466874,'',1976.0,1968.0,0.0
1541191802855535087,,29903,,1541191802,855350860,'',1976.0,1972.0,0.0
1541191802875593060,,29904,,1541191802,875420869,'',1988.0,1980.0,0.0
1541191802895580658,,29905,,1541191802,895439741,'',1980.0,1976.0,0.0
1541191802915484683,,29906,,1541191802,915339373,'',1988.0,1992.0,0.0
1541191802935557370,,29907,,1541191802,935403288,'',2004.0,2000.0,0.0
1541191802955513371,,29908,,1541191802,955350082,'',2020.0,2024.0,0.0
1541191802975701455,,29909,,1541191802,975496659,'',2040.0,2048.0,0.0
1541191802995589189,,29910,,1541191802,995361437,'',2064.0,2068.0,0.0
1541191803015744550,,29911,,1541191803,15354815,'',2116.0,2132.0,0.0
1541191803035613232,,29912,,1541191803,35423673,'',2160.0,2180.0,0.0
1541191803056242917,,29913,,1541191803,55303952,'',2180.0,2180.0,0.0
1541191803075511414,,29914,,1541191803,75393430,'',2184.0,2184.0,0.0
1541191803095538892,,29915,,1541191803,95316173,'',2200.0,2204.0,0.0
1541191803115577989,,29916,,1541191803,115471926,'',2240.0,2248.0,0.0
1541191803135496375,,29917,,1541191803,135315546,'',2272.0,2288.0,0.0
1541191803155502600,,29918,,1541191803,155269928,'',2284.0,2288.0,0.0
1541191803175600259,,29919,,1541191803,175479387,'',2292.0,2304.0,0.0
1541191803195493530,,29920,,1541191803,195296460,'',2312.0,2312.0,0.0
1541191803215450861,,29921,,1541191803,215301900,'',2324.0,2332.0,0.0
1541191803235532267,,29922,,1541191803,235365318,'',2324.0,2320.0,0.0
1541191803255562940,,29923,,1541191803,255381208,'',2332.0,2332.0,0.0
1541191803275542587,,29924,,1541191803,275347830,'',2336.0,2340.0,0.0
1541191803295446001,,29925,,1541191803,295279602,'',2344.0,2348.0,0.0
1541191803315576987,,29926,,1541191803,315415091,'',2340.0,2344.0,0.0
1541191803335481752,,29927,,1541191803,335323234,'',2344.0,2336.0,0.0
1541191803355438619,,29928,,1541191803,355278155,'',2340.0,2328.0,0.0
1541191803375546580,,29929,,1541191803,375345060,'',2344.0,2348.0,0.0
1541191803395540275,,29930,,1541191803,395371269,'',2356.0,2356.0,0.0
1541191803415459522,,29931,,1541191803,415318577,'',2356.0,2348.0,0.0
1541191803435475943,,29932,,1541191803,435332109,'',2356.0,2364.0,0.0
1541191803455520077,,29933,,1541191803,455325989,'',2360.0,2356.0,0.0
1541191803475550364,,29934,,1541191803,475323313,'',2364.0,2360.0,0.0
1541191803495532832,,29935,,1541191803,495348031,'',2364.0,2356.0,0.0
1541191803515516473,,29936,,1541191803,515321193,'',2356.0,2352.0,0.0
1541191803535556624,,29937,,1541191803,535411060,'',2356.0,2356.0,0.0
1541191803555472589,,29938,,1541191803,555290675,'',2356.0,2340.0,0.0
1541191803575500666,,29939,,1541191803,575341844,'',2356.0,2356.0,0.0
1541191803595615038,,29940,,1541191803,595445688,'',2356.0,2344.0,0.0
1541191803615522295,,29941,,1541191803,615327145,'',2352.0,2340.0,0.0
1541191803635018883,,29942,,1541191803,634850364,'',2344.0,2336.0,0.0
1541191803655402438,,29943,,1541191803,655274764,'',2336.0,2328.0,0.0
1541191803675442716,,29944,,1541191803,675295226,'',2336.0,2332.0,0.0
1541191803695441238,,29945,,1541191803,695265077,'',2336.0,2332.0,0.0
1541191803715388943,,29946,,1541191803,715233165,'',2340.0,2340.0,0.0
1541191803735609065,,29947,,1541191803,735422810,'',2340.0,2344.0,0.0
1541191803755410848,,29948,,1541191803,755244821,'',2348.0,2356.0,0.0
1541191803775467685,,29949,,1541191803,775280774,'',2368.0,2372.0,0.0
1541191803795513103,,29950,,1541191803,795297610,'',2380.0,2384.0,0.0
1541191803815714938,,29951,,1541191803,815388981,'',2404.0,2404.0,0.0
1541191803835464745,,29952,,1541191803,835245117,'',2404.0,2408.0,0.0
1541191803855383594,,29953,,1541191803,855225254,'',2412.0,2416.0,0.0
1541191803875523126,,29954,,1541191803,875376793,'',2404.0,2388.0,0.0
1541191803895475665,,29955,,1541191803,895298504,'',2396.0,2372.0,0.0
1541191803915447056,,29956,,1541191803,915278762,'',2380.0,2352.0,0.0
1541191803935456320,,29957,,1541191803,935272422,'',2360.0,2332.0,0.0
1541191803955419824,,29958,,1541191803,955271488,'',2344.0,2304.0,0.0
1541191803975462427,,29959,,1541191803,975304092,'',2328.0,2308.0,0.0
1541191803995400631,,29960,,1541191803,995204138,'',2316.0,2288.0,0.0
1541191804015444644,,29961,,1541191804,15291668,'',2296.0,2268.0,0.0
1541191804035455019,,29962,,1541191804,35261559,'',2288.0,2272.0,0.0
1541191804055563510,,29963,,1541191804,55296841,'',2276.0,2260.0,0.0
1541191804075454694,,29964,,1541191804,75286723,'',2268.0,2252.0,0.0
1541191804095438805,,29965,,1541191804,95261678,'',2260.0,2240.0,0.0
1541191804115367174,,29966,,1541191804,115241207,'',2252.0,2248.0,0.0
1541191804135430170,,29967,,1541191804,135266825,'',2240.0,2216.0,0.0
1541191804155415958,,29968,,1541191804,155248973,'',2232.0,2216.0,0.0
1541191804175495000,,29969,,1541191804,175347479,'',2220.0,2184.0,0.0
1541191804195391520,,29970,,1541191804,195215068,'',2192.0,2108.0,0.0
1541191804215362206,,29971,,1541191804,215191076,'',2100.0,1812.0,0.0
1541191804235505201,,29972,,1541191804,235319902,'',1880.0,1344.0,0.0
1541191804255440524,,29973,,1541191804,255201741,'',1568.0,788.0,0.0
1541191804275397361,,29974,,1541191804,275233159,'',1236.0,440.0,0.0
1541191804295574926,,29975,,1541191804,295341757,'',964.0,200.0,0.0
1541191804315404102,,29976,,1541191804,315209193,'',744.0,48.0,0.0
1541191804335360854,,29977,,1541191804,335208718,'',584.0,36.0,0.0
1541191804355383151,,29978,,1541191804,355205111,'',460.0,36.0,0.0
1541191804375560045,,29979,,1541191804,375349381,'',356.0,0.0,0.0
1541191804395732781,,29980,,1541191804,395594010,'',276.0,0.0,0.0
1541191804415399037,,29981,,1541191804,415242626,'',216.0,0.0,0.0
1541191804435569633,,29982,,1541191804,435307736,'',164.0,0.0,0.0
1541191804455394769,,29983,,1541191804,455206135,'',128.0,0.0,0.0
1541191804475546884,,29984,,1541191804,475347414,'',100.0,0.0,0.0
1541191804495363748,,29985,,1541191804,495194689,'',76.0,0.0,0.0
1541191804515699602,,29986,,1541191804,515320960,'',60.0,0.0,0.0
1541191804535420865,,29987,,1541191804,535201353,'',44.0,0.0,0.0
1541191804555374870,,29988,,1541191804,555173166,'',32.0,0.0,0.0
1541191804575450980,,29989,,1541191804,575308853,'',24.0,0.0,0.0
1541191804595423090,,29990,,1541191804,595247585,'',16.0,0.0,0.0
1541191804615343139,,29991,,1541191804,615184590,'',12.0,0.0,0.0
1541191804635606822,,29992,,1541191804,635356551,'',8.0,0.0,0.0
1541191804655437938,,29993,,1541191804,655229245,'',4.0,0.0,0.0
1541191804675315851,,29994,,1541191804,675162931,'',4.0,0.0,0.0
1541191804695460206,,29995,,1541191804,695246715,'',0.0,0.0,0.0
1541191804715384836,,29996,,1541191804,715213677,'',0.0,0.0,0.0
1541191804735402403,,29997,,1541191804,735232743,'',0.0,0.0,0.0
1541191804755393719,,29998,,1541191804,755167855,'',0.0,0.0,0.0
1541191804775519868,,29999,,1541191804,775367371,'',0.0,0.0,0.0
1541191804795423778,,30000,,1541191804,795210651,'',0.0,0.0,0.0
1541191804815286483,,30001,,1541191804,815168775,'',0.0,0.0,0.0
1541191804835329531,,30002,,1541191804,835214093,'',0.0,0.0,0.0
1541191804855537989,,30003,,1541191804,855203351,'',0.0,0.0,0.0
1541191804875356333,,30004,,1541191804,875217521,'',0.0,0.0,0.0
1541191804895499628,,30005,,1541191804,895283026,'',0.0,0.0,0.0
1541191804915314969,,30006,,1541191804,915155800,'',0.0,0.0,0.0
1541191804935420421,,30007,,1541191804,935268399,'',0.0,0.0,0.0
1541191804955342010,,30008,,1541191804,955142970,'',0.0,0.0,0.0
1541191804975336628,,30009,,1541191804,975179382,'',0.0,0.0,0.0
1541191804995339522,,30010,,1541191804,995217276,'',0.0,0.0,0.0
1541191805015336015,,30011,,1541191805,15171517,'',0.0,0.0,0.0
1541191805035338824,,30012,,1541191805,35177008,'',0.0,0.0,0.0
1541191805055375460,,30013,,1541191805,55162050,'',0.0,0.0,0.0
1541191805075500102,,30014,,1541191805,75344892,'',0.0,0.0,0.0
1541191805095381406,,30015,,1541191805,95186194,'',0.0,0.0,0.0
1541191805115288103,,30016,,1541191805,115148981,'',0.0,0.0,0.0
1541191805135443838,,30017,,1541191805,135291289,'',0.0,0.0,0.0
1541191805155449209,,30018,,1541191805,155163572,'',0.0,0.0,0.0
1541191805175743997,,30019,,1541191805,175518501,'',0.0,0.0,0.0
1541191805195308539,,30020,,1541191805,195155710,'',0.0,0.0,0.0
1541191805215392534,,30021,,1541191805,215245998,'',0.0,0.0,0.0
1541191805235328683,,30022,,1541191805,235154557,'',0.0,0.0,0.0
1541191805255327660,,30023,,1541191805,255163115,'',0.0,0.0,0.0
1541191805275420065,,30024,,1541191805,275237426,'',0.0,0.0,0.0
1541191805295371833,,30025,,1541191805,295150900,'',0.0,0.0,0.0
1541191805315370588,,30026,,1541191805,315172873,'',0.0,0.0,0.0
1541191805335415437,,30027,,1541191805,335164507,'',0.0,0.0,0.0
1541191805355297607,,30028,,1541191805,355160130,'',0.0,0.0,0.0
1541191805375509395,,30029,,1541191805,375374484,'',0.0,0.0,0.0
1541191805395291654,,30030,,1541191805,395118913,'',0.0,0.0,0.0
1541191805415314008,,30031,,1541191805,415177631,'',0.0,0.0,0.0
1541191805435516562,,30032,,1541191805,435328437,'',0.0,0.0,0.0
1541191805455332820,,30033,,1541191805,455138062,'',0.0,0.0,0.0
1541191805475545971,,30034,,1541191805,475405231,'',0.0,0.0,0.0
1541191805495382101,,30035,,1541191805,495172254,'',0.0,0.0,0.0
1541191805515944843,,30036,,1541191805,515683696,'',0.0,0.0,0.0
1541191805535528722,,30037,,1541191805,535325740,'',0.0,0.0,0.0
1541191805555392086,,30038,,1541191805,555179900,'',0.0,0.0,0.0
1541191805575299785,,30039,,1541191805,575106676,'',0.0,0.0,0.0
1541191805595257264,,30040,,1541191805,595120460,'',0.0,0.0,0.0
1541191805615367915,,30041,,1541191805,615199993,'',0.0,0.0,0.0
1541191805635402712,,30042,,1541191805,635268153,'',0.0,0.0,0.0
1541191805655409979,,30043,,1541191805,655198873,'',0.0,0.0,0.0
1541191805675260400,,30044,,1541191805,675114867,'',0.0,0.0,0.0
1541191805695279750,,30045,,1541191805,695127081,'',0.0,0.0,0.0
1541191805715493880,,30046,,1541191805,715142339,'',0.0,0.0,0.0
1541191805735280407,,30047,,1541191805,735103653,'',0.0,0.0,0.0
1541191805755348076,,30048,,1541191805,755074620,'',0.0,0.0,0.0
1541191805775325453,,30049,,1541191805,775134479,'',0.0,0.0,0.0
1541191805795213911,,30050,,1541191805,795090648,'',0.0,0.0,0.0
1541191805815393801,,30051,,1541191805,815130105,'',0.0,0.0,0.0
1541191805835356523,,30052,,1541191805,835217031,'',0.0,0.0,0.0
1541191805855276464,,30053,,1541191805,855106430,'',0.0,0.0,0.0
1541191805875305111,,30054,,1541191805,875113147,'',0.0,0.0,0.0
1541191805895227574,,30055,,1541191805,895093937,'',0.0,0.0,0.0
1541191805915312315,,30056,,1541191805,915116102,'',0.0,0.0,0.0
1541191805935446047,,30057,,1541191805,935311575,'',0.0,0.0,0.0
1541191805955346694,,30058,,1541191805,955143247,'',0.0,0.0,0.0
1541191805975560150,,30059,,1541191805,975331338,'',0.0,0.0,0.0
1541191805995203842,,30060,,1541191805,995052552,'',0.0,0.0,0.0
1541191806015277403,,30061,,1541191806,15082343,'',0.0,0.0,0.0
1541191806035227854,,30062,,1541191806,35062159,'',0.0,0.0,0.0
1541191806055298314,,30063,,1541191806,55123160,'',0.0,0.0,0.0
1541191806075257666,,30064,,1541191806,75061162,'',0.0,0.0,0.0
1541191806095245576,,30065,,1541191806,95055756,'',0.0,0.0,0.0
1541191806115181287,,30066,,1541191806,115054189,'',0.0,0.0,0.0
1541191806135309991,,30067,,1541191806,135120485,'',0.0,0.0,0.0
1541191806155256406,,30068,,1541191806,155059361,'',0.0,0.0,0.0
1541191806175218502,,30069,,1541191806,175091151,'',0.0,0.0,0.0
1541191806195255158,,30070,,1541191806,195097274,'',0.0,0.0,0.0
1541191806215280484,,30071,,1541191806,215060968,'',0.0,0.0,0.0
1541191806235329543,,30072,,1541191806,235088414,'',0.0,0.0,0.0
1541191806255255343,,30073,,1541191806,255057938,'',0.0,0.0,0.0
1541191806275631554,,30074,,1541191806,275464582,'',0.0,0.0,0.0
1541191806295329544,,30075,,1541191806,295130412,'',0.0,0.0,0.0
1541191806315220813,,30076,,1541191806,315049566,'',0.0,0.0,0.0
1541191806335273874,,30077,,1541191806,335109024,'',0.0,0.0,0.0
1541191806355265770,,30078,,1541191806,355051103,'',0.0,0.0,0.0
1541191806375485882,,30079,,1541191806,375318069,'',0.0,0.0,0.0
1541191806395301698,,30080,,1541191806,395090432,'',0.0,0.0,0.0
1541191806415287833,,30081,,1541191806,415099056,'',0.0,0.0,0.0
1541191806435435365,,30082,,1541191806,435274405,'',0.0,0.0,0.0
1541191806455486059,,30083,,1541191806,455074830,'',0.0,0.0,0.0
1541191806475637319,,30084,,1541191806,475485558,'',0.0,0.0,0.0
1541191806495172934,,30085,,1541191806,495009038,'',0.0,0.0,0.0
1541191806515282981,,30086,,1541191806,515047520,'',0.0,0.0,0.0
1541191806535264488,,30087,,1541191806,535067611,'',0.0,0.0,0.0
1541191806555416795,,30088,,1541191806,555043910,'',0.0,0.0,0.0
1541191806575519088,,30089,,1541191806,575319542,'',0.0,0.0,0.0
1541191806595383299,,30090,,1541191806,595260995,'',0.0,0.0,0.0
1541191806615531245,,30091,,1541191806,615242159,'',0.0,0.0,0.0
1541191806635517589,,30092,,1541191806,635355727,'',0.0,0.0,0.0
1541191806655696848,,30093,,1541191806,655318227,'',0.0,0.0,0.0
1541191806675358565,,30094,,1541191806,675158193,'',0.0,0.0,0.0
1541191806695159216,,30095,,1541191806,695016157,'',0.0,0.0,0.0
1541191806715247244,,30096,,1541191806,715049026,'',0.0,0.0,0.0
1541191806735185444,,30097,,1541191806,735020315,'',0.0,0.0,0.0
1541191806755219808,,30098,,1541191806,754987800,'',0.0,0.0,0.0
1541191806775284579,,30099,,1541191806,775123225,'',0.0,0.0,0.0
1541191806795157792,,30100,,1541191806,795013845,'',0.0,0.0,0.0
1541191806815221852,,30101,,1541191806,815019289,'',0.0,0.0,0.0
1541191806835285192,,30102,,1541191806,835066903,'',0.0,0.0,0.0
1541191806855231015,,30103,,1541191806,855081769,'',0.0,0.0,0.0
1541191806875547541,,30104,,1541191806,875376957,'',0.0,0.0,0.0
1541191806895222870,,30105,,1541191806,895081974,'',0.0,0.0,0.0
1541191806915192022,,30106,,1541191806,915036413,'',0.0,0.0,0.0
1541191806935592795,,30107,,1541191806,935352775,'',0.0,0.0,0.0
1541191806955645832,,30108,,1541191806,955260794,'',0.0,0.0,0.0
1541191806975335736,,30109,,1541191806,975182440,'',0.0,0.0,0.0
1541191806995226014,,30110,,1541191806,995031722,'',0.0,0.0,0.0
1541191807015195225,,30111,,1541191807,15027979,'',0.0,0.0,0.0
1541191807035240493,,30112,,1541191807,35044364,'',0.0,0.0,0.0
1541191807055180232,,30113,,1541191807,55002893,'',0.0,0.0,0.0
1541191807075310205,,30114,,1541191807,75164442,'',0.0,0.0,0.0
1541191807095230088,,30115,,1541191807,95011390,'',0.0,0.0,0.0
1541191807115384893,,30116,,1541191807,115223253,'',0.0,0.0,0.0
1541191807135252910,,30117,,1541191807,135112150,'',0.0,0.0,0.0
1541191807155390319,,30118,,1541191807,155004680,'',0.0,0.0,0.0
1541191807175652081,,30119,,1541191807,175411330,'',0.0,0.0,0.0
1541191807195317850,,30120,,1541191807,195182456,'',0.0,0.0,0.0
1541191807215098854,,30121,,1541191807,214935079,'',0.0,0.0,0.0
1541191807235258131,,30122,,1541191807,235114817,'',0.0,0.0,0.0
1541191807255222125,,30123,,1541191807,254993744,'',0.0,0.0,0.0
1541191807275267741,,30124,,1541191807,275111348,'',0.0,0.0,0.0
1541191807295117733,,30125,,1541191807,294939613,'',0.0,0.0,0.0
1541191807315195146,,30126,,1541191807,315030174,'',0.0,0.0,0.0
1541191807335203122,,30127,,1541191807,335064289,'',0.0,0.0,0.0
1541191807355265874,,30128,,1541191807,354959777,'',0.0,0.0,0.0
1541191807375400742,,30129,,1541191807,375275903,'',0.0,0.0,0.0
1541191807395039434,,30130,,1541191807,394906016,'',0.0,0.0,0.0
1541191807415132158,,30131,,1541191807,414926197,'',0.0,0.0,0.0
1541191807435542016,,30132,,1541191807,435372443,'',0.0,0.0,0.0
1541191807455127200,,30133,,1541191807,454919415,'',0.0,0.0,0.0
1541191807475588354,,30134,,1541191807,475411040,'',0.0,0.0,0.0
1541191807495302905,,30135,,1541191807,495135585,'',0.0,0.0,0.0
1541191807515140228,,30136,,1541191807,514945681,'',0.0,0.0,0.0
1541191807535255081,,30137,,1541191807,535096315,'',0.0,0.0,0.0
1541191807555081667,,30138,,1541191807,554922354,'',0.0,0.0,0.0
1541191807575554560,,30139,,1541191807,575411133,'',0.0,0.0,0.0
1541191807595284885,,30140,,1541191807,595182736,'',0.0,0.0,0.0
1541191807615524372,,30141,,1541191807,615362250,'',0.0,0.0,0.0
1541191807635502271,,30142,,1541191807,635277038,'',0.0,0.0,0.0
1541191807655638145,,30143,,1541191807,655335522,'',0.0,0.0,0.0
1541191807675577710,,30144,,1541191807,675380876,'',0.0,0.0,0.0
1541191807695087466,,30145,,1541191807,694910436,'',0.0,0.0,0.0
1541191807715272753,,30146,,1541191807,715116390,'',0.0,0.0,0.0
1541191807735116760,,30147,,1541191807,734811792,'',0.0,0.0,0.0
1541191807755404951,,30148,,1541191807,754903864,'',0.0,0.0,0.0
1541191807775517879,,30149,,1541191807,775353119,'',0.0,0.0,0.0
1541191807795253166,,30150,,1541191807,795124618,'',0.0,0.0,0.0
1541191807815075247,,30151,,1541191807,814907061,'',0.0,0.0,0.0
1541191807835345528,,30152,,1541191807,835153209,'',0.0,0.0,0.0
1541191807855084158,,30153,,1541191807,854907142,'',0.0,0.0,0.0
1541191807875311789,,30154,,1541191807,875207583,'',0.0,0.0,0.0
1541191807895008687,,30155,,1541191807,894870563,'',0.0,0.0,0.0
1541191807914547812,,30156,,1541191807,914401354,'',0.0,0.0,0.0
1541191807935528846,,30157,,1541191807,935319206,'',0.0,0.0,0.0
1541191807955191342,,30158,,1541191807,954887110,'',0.0,0.0,0.0
1541191807974677867,,30159,,1541191807,974545184,'',0.0,0.0,0.0
1541191807995171199,,30160,,1541191807,994921903,'',0.0,0.0,0.0
1541191808015032995,,30161,,1541191808,14933292,'',0.0,0.0,0.0
1541191808035306923,,30162,,1541191808,35144872,'',0.0,0.0,0.0
1541191808055427500,,30163,,1541191808,54965702,'',0.0,0.0,0.0
1541191808074542671,,30164,,1541191808,74362698,'',0.0,0.0,0.0
1541191808095309194,,30165,,1541191808,95170946,'',0.0,0.0,0.0
1541191808115530850,,30166,,1541191808,115161071,'',0.0,0.0,0.0
1541191808135271668,,30167,,1541191808,135126136,'',0.0,0.0,0.0
1541191808155737354,,30168,,1541191808,154972285,'',0.0,0.0,0.0
1541191808175309419,,30169,,1541191808,175176091,'',0.0,0.0,0.0
1541191808194562030,,30170,,1541191808,194392536,'',0.0,0.0,0.0
1541191808215102419,,30171,,1541191808,214909214,'',0.0,0.0,0.0
1541191808235224673,,30172,,1541191808,235100225,'',0.0,0.0,0.0
1541191808255120406,,30173,,1541191808,254897482,'',0.0,0.0,0.0
1541191808275331641,,30174,,1541191808,275156835,'',0.0,0.0,0.0
1541191808295101887,,30175,,1541191808,294954353,'',0.0,0.0,0.0
1541191808315068173,,30176,,1541191808,314884435,'',0.0,0.0,0.0
1541191808335315639,,30177,,1541191808,335140526,'',0.0,0.0,0.0
1541191808355049531,,30178,,1541191808,354892738,'',0.0,0.0,0.0
1541191808374674360,,30179,,1541191808,374522471,'',0.0,0.0,0.0
1541191808395423768,,30180,,1541191808,395169245,'',0.0,0.0,0.0
1541191808415063103,,30181,,1541191808,414902258,'',0.0,0.0,0.0
1541191808435650553,,30182,,1541191808,435428431,'',0.0,0.0,0.0
1541191808455035712,,30183,,1541191808,454863917,'',0.0,0.0,0.0
1541191808474838521,,30184,,1541191808,474643702,'',0.0,0.0,0.0
1541191808494975102,,30185,,1541191808,494849977,'',0.0,0.0,0.0
1541191808515347309,,30186,,1541191808,515188633,'',0.0,0.0,0.0
1541191808535473909,,30187,,1541191808,535235679,'',0.0,0.0,0.0
1541191808555038850,,30188,,1541191808,554851931,'',0.0,0.0,0.0
1541191808575643160,,30189,,1541191808,575426279,'',0.0,0.0,0.0
1541191808595434166,,30190,,1541191808,595279598,'',0.0,0.0,0.0
1541191808614633888,,30191,,1541191808,614405663,'',0.0,0.0,0.0
1541191808634649025,,30192,,1541191808,634482655,'',0.0,0.0,0.0
1541191808654573865,,30193,,1541191808,654415480,'',0.0,0.0,0.0
1541191808674583271,,30194,,1541191808,674394952,'',0.0,0.0,0.0
1541191808695494046,,30195,,1541191808,695253458,'',0.0,0.0,0.0
1541191808715145248,,30196,,1541191808,714898656,'',0.0,0.0,0.0
1541191808735339680,,30197,,1541191808,735125212,'',0.0,0.0,0.0
1541191808755316751,,30198,,1541191808,754846282,'',0.0,0.0,0.0
1541191808775395033,,30199,,1541191808,775204952,'',0.0,0.0,0.0
1541191808795071545,,30200,,1541191808,794902610,'',0.0,0.0,0.0
1541191808814988942,,30201,,1541191808,814856943,'',0.0,0.0,0.0
1541191808835274401,,30202,,1541191808,835133638,'',0.0,0.0,0.0
1541191808854669259,,30203,,1541191808,854441998,'',0.0,0.0,0.0
1541191808875367504,,30204,,1541191808,875198442,'',0.0,0.0,0.0
1541191808895001853,,30205,,1541191808,894844900,'',0.0,0.0,0.0
1541191808915035874,,30206,,1541191808,914853829,'',0.0,0.0,0.0
1541191808935652757,,30207,,1541191808,935421999,'',0.0,0.0,0.0
1541191808955535720,,30208,,1541191808,955266699,'',0.0,0.0,0.0
1541191808974574633,,30209,,1541191808,974403503,'',0.0,0.0,0.0
1541191808995326776,,30210,,1541191808,995171614,'',0.0,0.0,0.0
1541191809015012940,,30211,,1541191809,14861304,'',0.0,0.0,0.0
1541191809035465587,,30212,,1541191809,35256184,'',0.0,0.0,0.0
1541191809055097406,,30213,,1541191809,54873713,'',0.0,0.0,0.0
1541191809075299389,,30214,,1541191809,75157211,'',0.0,0.0,0.0
1541191809095022143,,30215,,1541191809,94849924,'',0.0,0.0,0.0
1541191809115513596,,30216,,1541191809,115255132,'',0.0,0.0,0.0
1541191809135408000,,30217,,1541191809,135222900,'',0.0,0.0,0.0
1541191809155033310,,30218,,1541191809,154835263,'',0.0,0.0,0.0
1541191809175359007,,30219,,1541191809,175188436,'',0.0,0.0,0.0
1541191809195002016,,30220,,1541191809,194835897,'',0.0,0.0,0.0
1541191809215027107,,30221,,1541191809,214873251,'',0.0,0.0,0.0
1541191809235475071,,30222,,1541191809,235189259,'',0.0,0.0,0.0
1541191809255104541,,30223,,1541191809,254890449,'',0.0,0.0,0.0
1541191809274665748,,30224,,1541191809,274465618,'',0.0,0.0,0.0
1541191809295381429,,30225,,1541191809,295249664,'',0.0,0.0,0.0
1541191809315004852,,30226,,1541191809,314846636,'',0.0,0.0,0.0
1541191809335333784,,30227,,1541191809,335176352,'',0.0,0.0,0.0
1541191809355080915,,30228,,1541191809,354872663,'',0.0,0.0,0.0
1541191809374538500,,30229,,1541191809,374417810,'',0.0,0.0,0.0
1541191809395087785,,30230,,1541191809,394924620,'',0.0,0.0,0.0
1541191809415385193,,30231,,1541191809,415229643,'',0.0,0.0,0.0
1541191809434675161,,30232,,1541191809,434459565,'',0.0,0.0,0.0
1541191809455062148,,30233,,1541191809,454884369,'',0.0,0.0,0.0
1541191809474788943,,30234,,1541191809,474651212,'',0.0,0.0,0.0
1541191809495191812,,30235,,1541191809,494892271,'',0.0,0.0,0.0
1541191809515268555,,30236,,1541191809,515131598,'',0.0,0.0,0.0
1541191809534437820,,30237,,1541191809,534267279,'',0.0,0.0,0.0
1541191809555153472,,30238,,1541191809,554891243,'',0.0,0.0,0.0
1541191809574515748,,30239,,1541191809,574370551,'',0.0,0.0,0.0
1541191809594521825,,30240,,1541191809,594297359,'',0.0,0.0,0.0
1541191809614563296,,30241,,1541191809,614372848,'',0.0,0.0,0.0
1541191809635405171,,30242,,1541191809,635213584,'',0.0,0.0,0.0
1541191809654669630,,30243,,1541191809,654390945,'',0.0,0.0,0.0
1541191809674630502,,30244,,1541191809,674472146,'',0.0,0.0,0.0
1541191809695115292,,30245,,1541191809,694894453,'',0.0,0.0,0.0
1541191809715081546,,30246,,1541191809,714905786,'',0.0,0.0,0.0
1541191809735418925,,30247,,1541191809,735251073,'',0.0,0.0,0.0
1541191809755101148,,30248,,1541191809,754891005,'',0.0,0.0,0.0
1541191809775465743,,30249,,1541191809,775276473,'',0.0,0.0,0.0
1541191809795046645,,30250,,1541191809,794881508,'',0.0,0.0,0.0
1541191809815089643,,30251,,1541191809,814892798,'',0.0,0.0,0.0
1541191809834431681,,30252,,1541191809,834290771,'',0.0,0.0,0.0
1541191809855075857,,30253,,1541191809,854895018,'',0.0,0.0,0.0
1541191809874566040,,30254,,1541191809,874439764,'',0.0,0.0,0.0
1541191809895402892,,30255,,1541191809,895240359,'',0.0,0.0,0.0
1541191809915122084,,30256,,1541191809,914927866,'',0.0,0.0,0.0
1541191809934609735,,30257,,1541191809,934465099,'',0.0,0.0,0.0
1541191809954458204,,30258,,1541191809,954299459,'',0.0,0.0,0.0
1541191809974679052,,30259,,1541191809,974495313,'',0.0,0.0,0.0
1541191809994625384,,30260,,1541191809,994449841,'',0.0,0.0,0.0
1541191810015140166,,30261,,1541191810,14975158,'',0.0,0.0,0.0
1541191810035445363,,30262,,1541191810,35188938,'',0.0,0.0,0.0
1541191810055053962,,30263,,1541191810,54914720,'',0.0,0.0,0.0
1541191810074408967,,30264,,1541191810,74216132,'',0.0,0.0,0.0
1541191810095111081,,30265,,1541191810,94947591,'',0.0,0.0,0.0
1541191810114386919,,30266,,1541191810,114242397,'',0.0,0.0,0.0
1541191810134358520,,30267,,1541191810,134216506,'',0.0,0.0,0.0
1541191810155067998,,30268,,1541191810,154913079,'',0.0,0.0,0.0
1541191810174582398,,30269,,1541191810,174439879,'',0.0,0.0,0.0
1541191810195428290,,30270,,1541191810,195220659,'',0.0,0.0,0.0
1541191810215119492,,30271,,1541191810,214987488,'',0.0,0.0,0.0
1541191810234516593,,30272,,1541191810,234298230,'',0.0,0.0,0.0
1541191810255056362,,30273,,1541191810,254906169,'',0.0,0.0,0.0
1541191810274555831,,30274,,1541191810,274431487,'',0.0,0.0,0.0
1541191810295553744,,30275,,1541191810,294990546,'',0.0,0.0,0.0
1541191810314634634,,30276,,1541191810,314458874,'',0.0,0.0,0.0
1541191810334518491,,30277,,1541191810,334247992,'',0.0,0.0,0.0
1541191810355040719,,30278,,1541191810,354888657,'',0.0,0.0,0.0
1541191810374469926,,30279,,1541191810,374324790,'',0.0,0.0,0.0
1541191810395446638,,30280,,1541191810,394945355,'',0.0,0.0,0.0
1541191810414372267,,30281,,1541191810,414236596,'',0.0,0.0,0.0
1541191810434573150,,30282,,1541191810,434435845,'',0.0,0.0,0.0
1541191810455113895,,30283,,1541191810,454928528,'',0.0,0.0,0.0
1541191810474614807,,30284,,1541191810,474492193,'',0.0,0.0,0.0
1541191810494627299,,30285,,1541191810,494431471,'',0.0,0.0,0.0
1541191810515094578,,30286,,1541191810,514962765,'',0.0,0.0,0.0
1541191810534362685,,30287,,1541191810,534227798,'',0.0,0.0,0.0
1541191810555107824,,30288,,1541191810,554946014,'',0.0,0.0,0.0
1541191810574609251,,30289,,1541191810,574457004,'',0.0,0.0,0.0
1541191810594616015,,30290,,1541191810,594420360,'',4.0,4.0,0.0
1541191810614647052,,30291,,1541191810,614462786,'',4.0,0.0,0.0
1541191810634706252,,30292,,1541191810,634509142,'',4.0,4.0,0.0
1541191810654632430,,30293,,1541191810,654432363,'',0.0,0.0,0.0
1541191810674394902,,30294,,1541191810,674278620,'',4.0,0.0,0.0
1541191810695060054,,30295,,1541191810,694914871,'',0.0,0.0,0.0
1541191810715177158,,30296,,1541191810,715006879,'',4.0,0.0,0.0
1541191810735430583,,30297,,1541191810,735264469,'',4.0,0.0,0.0
1541191810755087906,,30298,,1541191810,754921125,'',0.0,8.0,0.0
1541191810774524723,,30299,,1541191810,774406287,'',0.0,0.0,0.0
1541191810794665203,,30300,,1541191810,794312434,'',4.0,8.0,0.0
1541191810815103019,,30301,,1541191810,814981841,'',4.0,12.0,0.0
1541191810834415650,,30302,,1541191810,834243593,'',0.0,0.0,0.0
1541191810855086792,,30303,,1541191810,854930712,'',0.0,0.0,0.0
1541191810874716997,,30304,,1541191810,874509257,'',0.0,0.0,0.0
1541191810895086609,,30305,,1541191810,894907197,'',0.0,0.0,0.0
1541191810915119785,,30306,,1541191810,914961596,'',0.0,0.0,0.0
1541191810934598963,,30307,,1541191810,934442596,'',0.0,0.0,0.0
1541191810954674321,,30308,,1541191810,954487984,'',0.0,0.0,0.0
1541191810974616796,,30309,,1541191810,974445205,'',0.0,0.0,0.0
1541191810995241795,,30310,,1541191810,994977604,'',0.0,0.0,0.0
1541191811015169918,,30311,,1541191811,14982420,'',0.0,0.0,0.0
1541191811034611479,,30312,,1541191811,34400038,'',0.0,0.0,0.0
1541191811055130696,,30313,,1541191811,54948055,'',0.0,0.0,0.0
1541191811074697008,,30314,,1541191811,74491544,'',0.0,0.0,0.0
1541191811095778600,,30315,,1541191811,94331554,'',0.0,0.0,0.0
1541191811115522660,,30316,,1541191811,115349551,'',0.0,4.0,0.0
1541191811134562245,,30317,,1541191811,134372681,'',8.0,12.0,0.0
1541191811155118807,,30318,,1541191811,154940841,'',16.0,36.0,0.0
1541191811174482852,,30319,,1541191811,174294170,'',32.0,48.0,0.0
1541191811195211428,,30320,,1541191811,194879192,'',36.0,32.0,0.0
1541191811215154709,,30321,,1541191811,215029445,'',36.0,36.0,0.0
1541191811234487865,,30322,,1541191811,234355846,'',36.0,24.0,0.0
1541191811255156071,,30323,,1541191811,254987601,'',40.0,60.0,0.0
1541191811274624969,,30324,,1541191811,274470925,'',48.0,48.0,0.0
1541191811295109928,,30325,,1541191811,294900408,'',44.0,36.0,0.0
1541191811315173391,,30326,,1541191811,314962549,'',40.0,36.0,0.0
1541191811334593169,,30327,,1541191811,334384220,'',44.0,36.0,0.0
1541191811355143507,,30328,,1541191811,354934784,'',44.0,40.0,0.0
1541191811374611493,,30329,,1541191811,374453432,'',40.0,36.0,0.0
1541191811394566817,,30330,,1541191811,394337836,'',48.0,48.0,0.0
1541191811415249277,,30331,,1541191811,415022733,'',44.0,36.0,0.0
1541191811434636823,,30332,,1541191811,434472860,'',44.0,36.0,0.0
1541191811455130085,,30333,,1541191811,454972685,'',40.0,40.0,0.0
1541191811474645829,,30334,,1541191811,474466948,'',40.0,32.0,0.0
1541191811494821025,,30335,,1541191811,494673356,'',44.0,60.0,0.0
1541191811515174840,,30336,,1541191811,514987979,'',44.0,28.0,0.0
1541191811534576055,,30337,,1541191811,534427225,'',36.0,0.0,0.0
1541191811555145311,,30338,,1541191811,554992348,'',24.0,0.0,0.0
1541191811574670017,,30339,,1541191811,574457380,'',16.0,0.0,0.0
1541191811594660365,,30340,,1541191811,594410128,'',12.0,0.0,0.0
1541191811614568513,,30341,,1541191811,614423966,'',8.0,0.0,0.0
1541191811634640392,,30342,,1541191811,634514586,'',4.0,0.0,0.0
1541191811655189831,,30343,,1541191811,655032189,'',4.0,0.0,0.0
1541191811674632244,,30344,,1541191811,674487701,'',0.0,0.0,0.0
1541191811694520633,,30345,,1541191811,694367522,'',0.0,0.0,0.0
1541191811715174393,,30346,,1541191811,715017814,'',0.0,0.0,0.0
1541191811734531236,,30347,,1541191811,734357868,'',0.0,0.0,0.0
1541191811754668441,,30348,,1541191811,754484518,'',0.0,0.0,0.0
1541191811774646963,,30349,,1541191811,774453810,'',0.0,0.0,0.0
1541191811794622409,,30350,,1541191811,794458763,'',0.0,0.0,0.0
1541191811814618229,,30351,,1541191811,814424805,'',0.0,0.0,0.0
1541191811834539504,,30352,,1541191811,834324067,'',0.0,0.0,0.0
1541191811855136165,,30353,,1541191811,854985611,'',0.0,0.0,0.0
1541191811874712958,,30354,,1541191811,874540519,'',0.0,0.0,0.0
1541191811894683839,,30355,,1541191811,894470662,'',0.0,0.0,0.0
1541191811915234642,,30356,,1541191811,915041568,'',0.0,0.0,0.0
1541191811934604550,,30357,,1541191811,934433610,'',0.0,0.0,0.0
1541191811954682857,,30358,,1541191811,954475884,'',0.0,0.0,0.0
1541191811974658097,,30359,,1541191811,974492427,'',0.0,0.0,0.0
1541191811994533008,,30360,,1541191811,994339541,'',0.0,0.0,0.0
1541191812015267126,,30361,,1541191812,15065966,'',0.0,0.0,0.0
1541191812034643477,,30362,,1541191812,34504043,'',0.0,0.0,0.0
1541191812055192903,,30363,,1541191812,55000009,'',0.0,0.0,0.0
1541191812074690936,,30364,,1541191812,74552531,'',0.0,0.0,0.0
1541191812094757745,,30365,,1541191812,94492461,'',0.0,0.0,0.0
1541191812114566282,,30366,,1541191812,114374811,'',0.0,0.0,0.0
1541191812134440319,,30367,,1541191812,134307866,'',0.0,0.0,0.0
1541191812154231896,,30368,,1541191812,154024977,'',0.0,0.0,0.0
1541191812174642507,,30369,,1541191812,174525730,'',0.0,0.0,0.0
1541191812194655606,,30370,,1541191812,194508083,'',0.0,0.0,0.0
1541191812215270286,,30371,,1541191812,215034114,'',0.0,0.0,0.0
1541191812234541590,,30372,,1541191812,234392766,'',0.0,0.0,0.0
1541191812254192101,,30373,,1541191812,254023139,'',0.0,0.0,0.0
1541191812274696790,,30374,,1541191812,274476529,'',0.0,0.0,0.0
1541191812294520778,,30375,,1541191812,294335554,'',0.0,0.0,0.0
1541191812315244351,,30376,,1541191812,315059550,'',0.0,0.0,0.0
1541191812334626470,,30377,,1541191812,334483508,'',0.0,0.0,0.0
1541191812354510393,,30378,,1541191812,354367561,'',0.0,0.0,0.0
1541191812374637320,,30379,,1541191812,374494689,'',0.0,0.0,0.0
1541191812394693405,,30380,,1541191812,394501203,'',0.0,0.0,0.0
1541191812415186174,,30381,,1541191812,415016839,'',0.0,0.0,0.0
1541191812434583210,,30382,,1541191812,434457394,'',0.0,0.0,0.0
1541191812454623661,,30383,,1541191812,454459111,'',0.0,0.0,0.0
1541191812474715226,,30384,,1541191812,474532236,'',0.0,0.0,0.0
1541191812494574555,,30385,,1541191812,494409797,'',0.0,0.0,0.0
1541191812515223746,,30386,,1541191812,515056876,'',0.0,0.0,0.0
1541191812534620494,,30387,,1541191812,534432407,'',0.0,0.0,0.0
1541191812554264051,,30388,,1541191812,554035910,'',0.0,0.0,0.0
1541191812574647004,,30389,,1541191812,574459391,'',0.0,0.0,0.0
1541191812594756555,,30390,,1541191812,594536948,'',0.0,0.0,0.0
1541191812614622399,,30391,,1541191812,614459869,'',0.0,0.0,0.0
1541191812634679752,,30392,,1541191812,634516654,'',0.0,0.0,0.0
1541191812654639130,,30393,,1541191812,654447900,'',0.0,0.0,0.0
1541191812674922255,,30394,,1541191812,674767691,'',0.0,0.0,0.0
1541191812694683731,,30395,,1541191812,694453409,'',0.0,0.0,0.0
1541191812715251462,,30396,,1541191812,715076291,'',0.0,0.0,0.0
1541191812734520925,,30397,,1541191812,734325805,'',0.0,0.0,0.0
1541191812754275526,,30398,,1541191812,754071302,'',0.0,0.0,0.0
1541191812774690110,,30399,,1541191812,774516760,'',0.0,0.0,0.0
1541191812794692643,,30400,,1541191812,794517085,'',0.0,0.0,0.0
1541191812815226453,,30401,,1541191812,815054492,'',0.0,0.0,0.0
1541191812834680193,,30402,,1541191812,834511801,'',0.0,0.0,0.0
1541191812854262119,,30403,,1541191812,854046036,'',0.0,0.0,0.0
1541191812874846393,,30404,,1541191812,874717864,'',0.0,0.0,0.0
1541191812894540370,,30405,,1541191812,894379356,'',0.0,0.0,0.0
1541191812915226692,,30406,,1541191812,915060244,'',0.0,0.0,0.0
1541191812934633426,,30407,,1541191812,934494666,'',0.0,0.0,0.0
1541191812954731630,,30408,,1541191812,954517800,'',0.0,0.0,0.0
1541191812974612812,,30409,,1541191812,974485768,'',0.0,0.0,0.0
1541191812994560283,,30410,,1541191812,994401684,'',0.0,0.0,0.0
1541191813015266839,,30411,,1541191813,15073589,'',0.0,0.0,0.0
1541191813034665145,,30412,,1541191813,34498999,'',0.0,0.0,0.0
1541191813055207729,,30413,,1541191813,55033797,'',0.0,0.0,0.0
1541191813074671864,,30414,,1541191813,74499653,'',0.0,0.0,0.0
1541191813094561610,,30415,,1541191813,94407182,'',0.0,0.0,0.0
1541191813114684193,,30416,,1541191813,114519808,'',0.0,0.0,0.0
1541191813134529021,,30417,,1541191813,134367798,'',0.0,0.0,0.0
1541191813155215909,,30418,,1541191813,155059623,'',0.0,0.0,0.0
1541191813174650384,,30419,,1541191813,174485646,'',0.0,0.0,0.0
1541191813194593069,,30420,,1541191813,194446997,'',0.0,0.0,0.0
1541191813215281108,,30421,,1541191813,215102834,'',0.0,0.0,0.0
1541191813234685358,,30422,,1541191813,234493921,'',0.0,0.0,0.0
1541191813254700061,,30423,,1541191813,254505400,'',0.0,0.0,0.0
1541191813274905955,,30424,,1541191813,274710448,'',0.0,0.0,0.0
1541191813294589954,,30425,,1541191813,294442681,'',0.0,0.0,0.0
1541191813314650520,,30426,,1541191813,314535805,'',0.0,0.0,0.0
1541191813334661001,,30427,,1541191813,334439284,'',0.0,0.0,0.0
1541191813354675653,,30428,,1541191813,354505606,'',0.0,0.0,0.0
1541191813374667241,,30429,,1541191813,374487369,'',0.0,0.0,0.0
1541191813394526785,,30430,,1541191813,394307283,'',0.0,0.0,0.0
1541191813414593001,,30431,,1541191813,414389388,'',0.0,0.0,0.0
1541191813434351962,,30432,,1541191813,434158193,'',0.0,0.0,0.0
1541191813454261285,,30433,,1541191813,454074044,'',0.0,0.0,0.0
1541191813474691520,,30434,,1541191813,474514009,'',0.0,0.0,0.0
