rosbagTimestamp,header,seq,stamp,secs,nsecs,frame_id,throttle_rate,throttle_pc,engine_rpm
1541198208113554830,,53662,,1541198208,113447588,'',17.1000003815,0.0,1646.0
1541198208121856955,,53663,,1541198208,121682688,'',17.1000003815,0.0,1636.0
1541198208133188434,,53664,,1541198208,133051473,'',17.1000003815,0.0,1632.0
1541198208141537402,,53665,,1541198208,141292275,'',17.1000003815,0.0,1632.0
1541198208153182447,,53666,,1541198208,153051688,'',17.1000003815,0.0,1622.0
1541198208161305791,,53667,,1541198208,161143457,'',17.1000003815,0.0,1612.0
1541198208172525091,,53668,,1541198208,172372673,'',17.1000003815,0.0,1606.0
1541198208181594541,,53669,,1541198208,181464670,'',17.1000003815,0.0,1594.0
1541198208193416354,,53670,,1541198208,193241849,'',17.1000003815,0.0,1594.0
1541198208201564683,,53671,,1541198208,201345797,'',17.1000003815,0.0,1588.0
1541198208213483209,,53672,,1541198208,213373480,'',17.1000003815,0.0,1584.0
1541198208221579234,,53673,,1541198208,221473839,'',17.1000003815,0.0,1574.0
1541198208232800026,,53674,,1541198208,232499485,'',17.1000003815,0.0,1566.0
1541198208241714330,,53675,,1541198208,241545845,'',17.1000003815,0.0,1566.0
1541198208253353276,,53676,,1541198208,253221050,'',17.1000003815,0.0,1558.0
1541198208261491417,,53677,,1541198208,261344760,'',17.1000003815,0.0,1550.0
1541198208273041934,,53678,,1541198208,272847726,'',17.1000003815,0.0,1544.0
1541198208281336539,,53679,,1541198208,281207348,'',17.1000003815,0.0,1544.0
1541198208293515773,,53680,,1541198208,293421235,'',17.1000003815,0.0,1540.0
1541198208301838371,,53681,,1541198208,301631713,'',17.1000003815,0.0,1530.0
1541198208312572712,,53682,,1541198208,312410202,'',17.1000003815,0.0,1520.0
1541198208321650942,,53683,,1541198208,321496872,'',17.1000003815,0.0,1516.0
1541198208332572900,,53684,,1541198208,332427758,'',16.7999992371,-0.0399999991059,1516.0
1541198208341645240,,53685,,1541198208,341505838,'',16.7999992371,0.0,1510.0
1541198208352308403,,53686,,1541198208,352209246,'',16.7999992371,-0.0399999991059,1506.0
1541198208361441393,,53687,,1541198208,361312966,'',16.7999992371,-0.0399999991059,1502.0
1541198208372935842,,53688,,1541198208,372810536,'',16.7999992371,0.0,1502.0
1541198208381319024,,53689,,1541198208,381200020,'',16.7000007629,-0.0399999991059,1496.0
1541198208393345305,,53690,,1541198208,393220536,'',16.6000003815,-0.0399999991059,1486.0
1541198208401500371,,53691,,1541198208,401290753,'',16.6000003815,0.0,1484.0
1541198208412539740,,53692,,1541198208,412421012,'',16.1000003815,-0.0799999982119,1484.0
1541198208421896416,,53693,,1541198208,421742060,'',15.1999998093,-0.119999997318,1482.0
1541198208433260186,,53694,,1541198208,433048842,'',15.1999998093,0.0,1478.0
1541198208441405581,,53695,,1541198208,441225325,'',14.0,-0.119999997318,1478.0
1541198208453490858,,53696,,1541198208,453166512,'',13.0,-0.119999997318,1476.0
1541198208461428119,,53697,,1541198208,461250674,'',13.0,0.0,1472.0
1541198208472551193,,53698,,1541198208,472433358,'',12.3000001907,-0.0799999982119,1464.0
1541198208481928777,,53699,,1541198208,481803485,'',12.0,-0.0399999991059,1464.0
1541198208494180164,,53700,,1541198208,494032333,'',12.0,0.0,1462.0
1541198208501246962,,53701,,1541198208,501131090,'',11.8999996185,-0.0399999991059,1452.0
1541198208513536269,,53702,,1541198208,513421882,'',11.8999996185,-0.0399999991059,1440.0
1541198208521875776,,53703,,1541198208,521728314,'',11.8999996185,0.0,1440.0
1541198208532516916,,53704,,1541198208,532393866,'',11.8000001907,-0.0399999991059,1426.0
1541198208541657475,,53705,,1541198208,541533513,'',11.8000001907,-0.0399999991059,1404.0
1541198208553331458,,53706,,1541198208,553146086,'',11.8000001907,0.0,1404.0
1541198208561507789,,53707,,1541198208,561340341,'',11.6999998093,-0.0399999991059,1388.0
1541198208572944644,,53708,,1541198208,572793477,'',11.6999998093,-0.0399999991059,1370.0
1541198208581204241,,53709,,1541198208,581110748,'',11.6999998093,0.0,1370.0
1541198208593550126,,53710,,1541198208,593407689,'',11.6000003815,-0.0399999991059,1356.0
1541198208601610077,,53711,,1541198208,601489653,'',11.6000003815,-0.0399999991059,1348.0
1541198208612512576,,53712,,1541198208,612406537,'',11.6000003815,0.0,1348.0
1541198208621718427,,53713,,1541198208,621498927,'',11.6000003815,0.0,1348.0
1541198208633374685,,53714,,1541198208,633252572,'',11.6000003815,0.0,1352.0
1541198208641468236,,53715,,1541198208,641364469,'',11.6000003815,0.0,1352.0
1541198208653210307,,53716,,1541198208,653090713,'',11.6000003815,0.0,1360.0
1541198208661407419,,53717,,1541198208,661211752,'',11.6000003815,0.0,1372.0
1541198208672772527,,53718,,1541198208,672622597,'',11.6000003815,0.0,1380.0
1541198208681815968,,53719,,1541198208,681697980,'',11.6000003815,0.0,1380.0
1541198208693357580,,53720,,1541198208,693223404,'',11.6000003815,0.0,1388.0
1541198208701380601,,53721,,1541198208,701265434,'',11.6000003815,0.0,1392.0
1541198208712554569,,53722,,1541198208,712400451,'',11.6000003815,0.0,1392.0
1541198208721958883,,53723,,1541198208,721770037,'',11.6000003815,0.0,1388.0
1541198208733805344,,53724,,1541198208,733285102,'',11.6000003815,0.0,1384.0
1541198208741483825,,53725,,1541198208,741369853,'',11.6000003815,0.0,1384.0
1541198208753248519,,53726,,1541198208,753116124,'',11.6000003815,0.0,1376.0
1541198208761405814,,53727,,1541198208,761197024,'',11.6000003815,0.0,1372.0
1541198208772605065,,53728,,1541198208,772413402,'',11.6000003815,0.0,1372.0
1541198208781158218,,53729,,1541198208,781054636,'',11.6000003815,0.0,1370.0
1541198208793482660,,53730,,1541198208,793318038,'',11.6000003815,0.0,1374.0
1541198208801418787,,53731,,1541198208,801317672,'',11.6000003815,0.0,1378.0
1541198208812582849,,53732,,1541198208,812462496,'',11.6000003815,0.0,1378.0
1541198208821192899,,53733,,1541198208,821054685,'',11.6000003815,0.0,1384.0
1541198208832606936,,53734,,1541198208,832457411,'',11.6000003815,0.0,1386.0
1541198208841650900,,53735,,1541198208,841511632,'',11.6000003815,0.0,1386.0
1541198208853226965,,53736,,1541198208,853069308,'',11.6000003815,0.0,1390.0
1541198208861246033,,53737,,1541198208,861118495,'',11.6000003815,0.0,1392.0
1541198208872676599,,53738,,1541198208,872468701,'',11.6000003815,0.0,1392.0
1541198208881163296,,53739,,1541198208,881049432,'',11.6000003815,0.0,1398.0
1541198208893565501,,53740,,1541198208,893412717,'',11.6000003815,0.0,1398.0
1541198208901618786,,53741,,1541198208,901490868,'',11.6000003815,0.0,1400.0
1541198208912551830,,53742,,1541198208,912427315,'',11.6000003815,0.0,1400.0
1541198208921608006,,53743,,1541198208,921478663,'',11.6000003815,0.0,1402.0
1541198208933383427,,53744,,1541198208,933108004,'',11.6000003815,0.0,1402.0
1541198208941350330,,53745,,1541198208,941228114,'',11.6000003815,0.0,1402.0
1541198208953241525,,53746,,1541198208,953071532,'',11.6000003815,0.0,1402.0
1541198208961381129,,53747,,1541198208,961232215,'',11.6000003815,0.0,1408.0
1541198208972553925,,53748,,1541198208,972443219,'',11.6000003815,0.0,1408.0
1541198208981695769,,53749,,1541198208,981586751,'',11.6000003815,0.0,1406.0
1541198208993368426,,53750,,1541198208,993205431,'',11.6000003815,0.0,1410.0
1541198209001402281,,53751,,1541198209,1223256,'',11.6000003815,0.0,1412.0
1541198209012629429,,53752,,1541198209,12454800,'',11.6000003815,0.0,1412.0
1541198209021140591,,53753,,1541198209,20994716,'',11.6000003815,0.0,1416.0
1541198209033556806,,53754,,1541198209,33260103,'',11.6000003815,0.0,1418.0
1541198209041594530,,53755,,1541198209,41382126,'',11.6000003815,0.0,1418.0
1541198209053180770,,53756,,1541198209,53002359,'',11.6000003815,0.0,1424.0
1541198209061432220,,53757,,1541198209,61121893,'',11.6000003815,0.0,1420.0
1541198209073560278,,53758,,1541198209,73397414,'',11.6000003815,0.0,1424.0
1541198209081974445,,53759,,1541198209,81823648,'',11.6000003815,0.0,1424.0
1541198209093561255,,53760,,1541198209,93330657,'',11.6000003815,0.0,1424.0
1541198209101464130,,53761,,1541198209,101371296,'',11.6000003815,0.0,1424.0
1541198209112605548,,53762,,1541198209,112433238,'',11.6000003815,0.0,1424.0
1541198209121870823,,53763,,1541198209,121770590,'',11.6000003815,0.0,1424.0
1541198209132607284,,53764,,1541198209,132404273,'',11.6000003815,0.0,1428.0
1541198209141701053,,53765,,1541198209,141522200,'',11.6000003815,0.0,1426.0
1541198209153158188,,53766,,1541198209,153002166,'',11.6000003815,0.0,1426.0
1541198209161201854,,53767,,1541198209,161077482,'',11.6000003815,0.0,1426.0
1541198209172561202,,53768,,1541198209,172432718,'',11.6000003815,0.0,1428.0
1541198209181056606,,53769,,1541198209,180948320,'',11.6000003815,0.0,1428.0
1541198209193669621,,53770,,1541198209,193415037,'',11.6000003815,0.0,1426.0
1541198209201649085,,53771,,1541198209,201526285,'',11.6000003815,0.0,1426.0
1541198209213603627,,53772,,1541198209,213456084,'',11.6000003815,0.0,1428.0
1541198209221681833,,53773,,1541198209,221542347,'',11.6000003815,0.0,1428.0
1541198209233460329,,53774,,1541198209,233238401,'',11.6000003815,0.0,1426.0
1541198209241438563,,53775,,1541198209,241327834,'',11.6000003815,0.0,1426.0
1541198209253008839,,53776,,1541198209,252906400,'',11.6000003815,0.0,1426.0
1541198209261159887,,53777,,1541198209,261018212,'',11.6000003815,0.0,1428.0
1541198209272611962,,53778,,1541198209,272459573,'',11.6000003815,0.0,1424.0
1541198209281642973,,53779,,1541198209,281545333,'',11.6000003815,0.0,1424.0
1541198209294108713,,53780,,1541198209,293978212,'',11.6000003815,0.0,1422.0
1541198209301162462,,53781,,1541198209,301050261,'',11.6000003815,0.0,1422.0
1541198209312546979,,53782,,1541198209,312418463,'',11.6000003815,0.0,1420.0
1541198209321935322,,53783,,1541198209,321807948,'',11.6000003815,0.0,1420.0
1541198209332801381,,53784,,1541198209,332501946,'',11.6000003815,0.0,1418.0
1541198209341647759,,53785,,1541198209,341524016,'',11.6000003815,0.0,1418.0
1541198209353041210,,53786,,1541198209,352930154,'',11.6000003815,0.0,1418.0
1541198209361353121,,53787,,1541198209,361072394,'',11.6000003815,0.0,1418.0
1541198209372583060,,53788,,1541198209,372433181,'',11.6000003815,0.0,1418.0
1541198209381037232,,53789,,1541198209,380921417,'',12.0,0.0399999991059,1418.0
1541198209394463680,,53790,,1541198209,394087387,'',12.0,0.0,1418.0
1541198209401472402,,53791,,1541198209,401197275,'',12.3000001907,0.0,1418.0
1541198209412617406,,53792,,1541198209,412437327,'',12.8000001907,0.0399999991059,1418.0
1541198209421038695,,53793,,1541198209,420896047,'',12.8000001907,0.0,1418.0
1541198209432659225,,53794,,1541198209,432487109,'',13.1999998093,0.0399999991059,1420.0
1541198209441667281,,53795,,1541198209,441545617,'',13.3999996185,0.0,1418.0
1541198209453027256,,53796,,1541198209,452897745,'',13.3999996185,0.0,1420.0
1541198209461147173,,53797,,1541198209,461020180,'',13.6000003815,0.0,1420.0
1541198209473481567,,53798,,1541198209,473311059,'',13.6000003815,0.0,1426.0
1541198209481487780,,53799,,1541198209,481352317,'',13.6000003815,0.0,1426.0
1541198209494289794,,53800,,1541198209,494145507,'',13.8000001907,0.0,1426.0
1541198209501384584,,53801,,1541198209,501245446,'',13.8999996185,0.0,1432.0
1541198209512526118,,53802,,1541198209,512422193,'',13.8999996185,0.0,1442.0
1541198209521694274,,53803,,1541198209,521529576,'',14.1000003815,0.0,1446.0
1541198209533523364,,53804,,1541198209,533163418,'',14.1999998093,0.0,1446.0
1541198209541430934,,53805,,1541198209,541293989,'',14.1999998093,0.0,1452.0
1541198209553234405,,53806,,1541198209,553034888,'',14.3999996185,0.0,1458.0
1541198209562172266,,53807,,1541198209,561988495,'',14.5,0.0,1462.0
1541198209572774339,,53808,,1541198209,572530368,'',14.5,0.0,1462.0
1541198209581923341,,53809,,1541198209,581808779,'',14.6000003815,0.0,1466.0
1541198209594249116,,53810,,1541198209,594083482,'',14.6000003815,0.0,1474.0
1541198209601334844,,53811,,1541198209,601167419,'',14.6000003815,0.0,1474.0
1541198209612578769,,53812,,1541198209,612447783,'',14.6000003815,0.0,1476.0
1541198209622056522,,53813,,1541198209,621850329,'',14.6000003815,0.0,1478.0
1541198209633345551,,53814,,1541198209,633190619,'',14.6000003815,0.0,1484.0
1541198209641445739,,53815,,1541198209,641318328,'',14.6000003815,0.0,1484.0
1541198209653238267,,53816,,1541198209,653009063,'',14.6000003815,0.0,1486.0
1541198209661166902,,53817,,1541198209,661012535,'',14.6000003815,0.0,1490.0
1541198209672680095,,53818,,1541198209,672476587,'',14.6000003815,0.0,1496.0
1541198209682005234,,53819,,1541198209,681858247,'',14.6000003815,0.0,1496.0
1541198209694350463,,53820,,1541198209,694191803,'',14.6000003815,0.0,1496.0
1541198209701381134,,53821,,1541198209,701280693,'',14.6000003815,0.0,1496.0
1541198209712623757,,53822,,1541198209,712484804,'',14.6000003815,0.0,1500.0
1541198209721975689,,53823,,1541198209,721851643,'',14.6000003815,0.0,1500.0
1541198209732792381,,53824,,1541198209,732473589,'',14.6000003815,0.0,1500.0
1541198209742013482,,53825,,1541198209,741868115,'',14.6000003815,0.0,1500.0
1541198209753021274,,53826,,1541198209,752889200,'',14.6000003815,0.0,1502.0
1541198209761397574,,53827,,1541198209,761010807,'',14.6000003815,0.0,1502.0
1541198209772540638,,53828,,1541198209,772428929,'',14.6000003815,0.0,1500.0
1541198209781898123,,53829,,1541198209,781775791,'',14.6000003815,0.0,1496.0
1541198209793627745,,53830,,1541198209,793496094,'',14.6000003815,0.0,1496.0
1541198209801676450,,53831,,1541198209,801538356,'',14.6000003815,0.0,1496.0
1541198209812610105,,53832,,1541198209,812461933,'',14.6000003815,0.0,1492.0
1541198209821841401,,53833,,1541198209,821741901,'',14.6000003815,0.0,1490.0
1541198209833193423,,53834,,1541198209,833043229,'',14.6000003815,0.0,1486.0
1541198209841459121,,53835,,1541198209,841199272,'',14.6000003815,0.0,1486.0
1541198209852984761,,53836,,1541198209,852868389,'',14.6000003815,0.0,1482.0
1541198209861429369,,53837,,1541198209,861176941,'',14.6000003815,0.0,1482.0
1541198209872643714,,53838,,1541198209,872480158,'',14.6000003815,0.0,1484.0
1541198209881694670,,53839,,1541198209,881558768,'',14.6000003815,0.0,1484.0
1541198209894192692,,53840,,1541198209,894058261,'',14.6000003815,0.0,1476.0
1541198209901378123,,53841,,1541198209,901124229,'',14.6000003815,0.0,1478.0
1541198209912650569,,53842,,1541198209,912471495,'',14.6000003815,0.0,1480.0
1541198209922026423,,53843,,1541198209,921852713,'',14.6000003815,0.0,1480.0
1541198209933241679,,53844,,1541198209,933122121,'',14.6000003815,0.0,1478.0
1541198209941380174,,53845,,1541198209,941230339,'',14.6000003815,0.0,1478.0
1541198209953120766,,53846,,1541198209,952894910,'',14.6000003815,0.0,1482.0
1541198209961118213,,53847,,1541198209,960989625,'',14.6000003815,0.0,1482.0
1541198209973615013,,53848,,1541198209,973458050,'',14.6000003815,0.0,1480.0
1541198209982020715,,53849,,1541198209,981895583,'',14.6000003815,0.0,1482.0
1541198209994327244,,53850,,1541198209,994166613,'',14.6000003815,0.0,1482.0
1541198210001421044,,53851,,1541198210,1252906,'',14.6000003815,0.0,1482.0
1541198210012652843,,53852,,1541198210,12507787,'',14.6000003815,0.0,1482.0
1541198210022055789,,53853,,1541198210,21870330,'',14.6000003815,0.0,1480.0
1541198210032654908,,53854,,1541198210,32470341,'',14.6000003815,0.0,1480.0
1541198210041994028,,53855,,1541198210,41817301,'',14.6000003815,0.0,1482.0
1541198210053380866,,53856,,1541198210,53227582,'',14.6000003815,0.0,1480.0
1541198210061456425,,53857,,1541198210,61282339,'',14.1999998093,-0.0799999982119,1482.0
1541198210072625890,,53858,,1541198210,72470705,'',13.8999996185,-0.0399999991059,1482.0
1541198210082060884,,53859,,1541198210,81911880,'',13.8999996185,0.0,1484.0
1541198210093713881,,53860,,1541198210,93529920,'',13.6000003815,-0.0399999991059,1484.0
1541198210101045859,,53861,,1541198210,100896843,'',13.1999998093,-0.0799999982119,1484.0
1541198210112613262,,53862,,1541198210,112483304,'',13.1999998093,0.0,1484.0
1541198210121663093,,53863,,1541198210,121530197,'',12.6999998093,-0.0799999982119,1486.0
1541198210133472978,,53864,,1541198210,133137744,'',12.1999998093,-0.0799999982119,1482.0
1541198210141443673,,53865,,1541198210,141281699,'',12.1999998093,0.0,1482.0
1541198210152974436,,53866,,1541198210,152866388,'',11.8999996185,-0.0399999991059,1482.0
1541198210161470886,,53867,,1541198210,161020055,'',11.6000003815,-0.0399999991059,1480.0
1541198210172616937,,53868,,1541198210,172508667,'',11.6000003815,0.0,1476.0
1541198210181795930,,53869,,1541198210,181691055,'',11.5,-0.0399999991059,1472.0
1541198210194264493,,53870,,1541198210,194128112,'',11.3999996185,-0.0399999991059,1472.0
1541198210201379874,,53871,,1541198210,201235644,'',11.3999996185,0.0,1470.0
1541198210212655497,,53872,,1541198210,212516653,'',11.3999996185,-0.0399999991059,1460.0
1541198210221109242,,53873,,1541198210,220909576,'',11.3000001907,-0.0399999991059,1460.0
1541198210233580478,,53874,,1541198210,233259677,'',11.3000001907,0.0,1456.0
1541198210241454731,,53875,,1541198210,241339578,'',11.3000001907,-0.0399999991059,1454.0
1541198210252959976,,53876,,1541198210,252849899,'',11.3000001907,0.0,1452.0
1541198210261426436,,53877,,1541198210,261009441,'',11.3000001907,0.0,1452.0
1541198210272621056,,53878,,1541198210,272478102,'',11.3000001907,-0.0399999991059,1450.0
1541198210281092384,,53879,,1541198210,280953018,'',11.3000001907,-0.0399999991059,1454.0
1541198210294086238,,53880,,1541198210,293846986,'',11.3000001907,0.0,1454.0
1541198210301189476,,53881,,1541198210,300996387,'',11.3000001907,-0.0399999991059,1454.0
1541198210312592399,,53882,,1541198210,312477956,'',11.1000003815,-0.0399999991059,1460.0
1541198210322012722,,53883,,1541198210,321897114,'',11.1000003815,0.0,1466.0
1541198210333754762,,53884,,1541198210,333521888,'',11.0,-0.0399999991059,1470.0
1541198210341740131,,53885,,1541198210,341600753,'',10.8999996185,-0.0399999991059,1470.0
1541198210353060165,,53886,,1541198210,352889541,'',10.8999996185,0.0,1474.0
1541198210361286154,,53887,,1541198210,360964334,'',10.8000001907,-0.0399999991059,1478.0
1541198210373344992,,53888,,1541198210,373229412,'',10.5,-0.0399999991059,1478.0
1541198210381067744,,53889,,1541198210,380942689,'',10.5,0.0,1476.0
1541198210393614334,,53890,,1541198210,393485834,'',10.1000003815,-0.0399999991059,1476.0
1541198210401766989,,53891,,1541198210,401600674,'',9.60000038147,-0.0799999982119,1470.0
1541198210412578193,,53892,,1541198210,412475756,'',9.60000038147,0.0,1470.0
1541198210421793451,,53893,,1541198210,421602618,'',9.10000038147,-0.0799999982119,1470.0
1541198210433461212,,53894,,1541198210,433219133,'',8.5,-0.0799999982119,1468.0
1541198210441489223,,53895,,1541198210,441342659,'',8.5,0.0,1470.0
1541198210452963982,,53896,,1541198210,452838806,'',8.19999980927,-0.0399999991059,1470.0
1541198210461066653,,53897,,1541198210,460932731,'',8.0,-0.0399999991059,1468.0
1541198210473417607,,53898,,1541198210,473262771,'',8.0,0.0,1468.0
1541198210481436226,,53899,,1541198210,481333338,'',7.90000009537,-0.0399999991059,1470.0
1541198210494406906,,53900,,1541198210,494267648,'',7.90000009537,0.0,1470.0
1541198210501425050,,53901,,1541198210,501311708,'',7.90000009537,0.0,1468.0
1541198210512634855,,53902,,1541198210,512503814,'',7.90000009537,0.0,1470.0
1541198210521040121,,53903,,1541198210,520916037,'',7.90000009537,0.0,1470.0
1541198210533386525,,53904,,1541198210,533151365,'',7.90000009537,0.0,1472.0
1541198210541306598,,53905,,1541198210,541160614,'',7.90000009537,0.0,1466.0
1541198210552903426,,53906,,1541198210,552783644,'',7.90000009537,0.0,1466.0
1541198210561150965,,53907,,1541198210,560922610,'',7.90000009537,0.0,1466.0
1541198210572687830,,53908,,1541198210,572520910,'',7.90000009537,0.0,1466.0
1541198210581029045,,53909,,1541198210,580911603,'',7.90000009537,0.0,1466.0
1541198210594231142,,53910,,1541198210,594083244,'',7.90000009537,0.0,1466.0
1541198210601331735,,53911,,1541198210,601228392,'',7.90000009537,0.0,1466.0
1541198210612649929,,53912,,1541198210,612469956,'',8.39999961853,0.0399999991059,1472.0
1541198210621037576,,53913,,1541198210,620931864,'',8.39999961853,0.0,1472.0
1541198210632627580,,53914,,1541198210,632484673,'',8.60000038147,0.0,1474.0
1541198210641176749,,53915,,1541198210,641018162,'',8.80000019073,0.0,1474.0
1541198210652864623,,53916,,1541198210,652731514,'',8.80000019073,0.0,1478.0
1541198210661967617,,53917,,1541198210,661839230,'',8.89999961853,0.0,1478.0
1541198210673372283,,53918,,1541198210,673169857,'',9.0,0.0,1478.0
1541198210681350201,,53919,,1541198210,681217124,'',9.0,0.0,1478.0
1541198210693625660,,53920,,1541198210,693507413,'',9.19999980927,0.0,1480.0
1541198210701075161,,53921,,1541198210,700925813,'',9.5,0.0,1478.0
1541198210713571209,,53922,,1541198210,713466341,'',9.5,0.0,1480.0
1541198210721695784,,53923,,1541198210,721598095,'',9.89999961853,0.0399999991059,1480.0
1541198210733429759,,53924,,1541198210,733210377,'',10.3000001907,0.0,1484.0
1541198210741412222,,53925,,1541198210,741294755,'',10.3000001907,0.0,1484.0
1541198210752781342,,53926,,1541198210,752543899,'',10.8000001907,0.0399999991059,1484.0
1541198210761715996,,53927,,1541198210,761597035,'',11.1999998093,0.0399999991059,1488.0
1541198210773354126,,53928,,1541198210,773228054,'',11.1999998093,0.0,1492.0
1541198210781595302,,53929,,1541198210,781472728,'',11.6999998093,0.0399999991059,1494.0
1541198210794271480,,53930,,1541198210,794133601,'',12.0,0.0,1494.0
1541198210801313279,,53931,,1541198210,801203328,'',12.0,0.0,1500.0
1541198210812669482,,53932,,1541198210,812531703,'',12.3000001907,0.0,1508.0
1541198210821077067,,53933,,1541198210,820949727,'',12.5,0.0,1516.0
1541198210833311447,,53934,,1541198210,833190379,'',12.5,0.0,1526.0
1541198210841437666,,53935,,1541198210,841281493,'',12.6000003815,0.0,1526.0
1541198210852871582,,53936,,1541198210,852765673,'',12.6999998093,0.0,1542.0
1541198210861082214,,53937,,1541198210,860947905,'',12.6999998093,0.0,1550.0
1541198210872679188,,53938,,1541198210,872475064,'',12.8000001907,0.0,1564.0
1541198210881056318,,53939,,1541198210,880941368,'',13.1999998093,0.0,1564.0
1541198210894303708,,53940,,1541198210,894187332,'',13.1999998093,0.0,1576.0
1541198210901486005,,53941,,1541198210,901295248,'',13.6000003815,0.0399999991059,1584.0
1541198210912618679,,53942,,1541198210,912460913,'',13.8999996185,0.0,1590.0
1541198210921109663,,53943,,1541198210,920979470,'',13.8999996185,0.0,1594.0
1541198210932738645,,53944,,1541198210,932516005,'',14.0,0.0,1594.0
1541198210941215941,,53945,,1541198210,941004979,'',14.0,0.0,1592.0
1541198210952893029,,53946,,1541198210,952765486,'',14.0,0.0,1592.0
1541198210961977852,,53947,,1541198210,961868419,'',14.0,0.0,1592.0
1541198210973321306,,53948,,1541198210,973151541,'',14.0,0.0,1588.0
1541198210981361748,,53949,,1541198210,981218925,'',14.0,0.0,1588.0
1541198210993705437,,53950,,1541198210,993552239,'',14.0,0.0,1586.0
1541198211001777301,,53951,,1541198211,1604359,'',14.0,0.0,1588.0
1541198211012639374,,53952,,1541198211,12508398,'',14.0,0.0,1586.0
1541198211021712289,,53953,,1541198211,21593016,'',14.0,0.0,1586.0
1541198211033431696,,53954,,1541198211,33218605,'',14.0,0.0,1586.0
1541198211041439120,,53955,,1541198211,41300185,'',14.0,0.0,1588.0
1541198211052576014,,53956,,1541198211,52437610,'',14.0,0.0,1584.0
1541198211061098167,,53957,,1541198211,60975032,'',14.0,0.0,1578.0
1541198211073174466,,53958,,1541198211,73057508,'',14.0,0.0,1578.0
1541198211081212610,,53959,,1541198211,81119734,'',14.0,0.0,1578.0
1541198211094523643,,53960,,1541198211,94273391,'',14.1000003815,0.0,1572.0
1541198211101423442,,53961,,1541198211,101293580,'',14.1000003815,0.0,1570.0
1541198211112624385,,53962,,1541198211,112519363,'',14.1000003815,0.0,1568.0
1541198211121138730,,53963,,1541198211,120995156,'',14.1000003815,0.0,1568.0
1541198211133475214,,53964,,1541198211,133252963,'',14.1000003815,0.0,1562.0
1541198211141483053,,53965,,1541198211,141357164,'',14.1000003815,0.0,1556.0
1541198211152930856,,53966,,1541198211,152743756,'',14.1000003815,0.0,1556.0
1541198211162220536,,53967,,1541198211,162053565,'',14.1000003815,0.0,1552.0
1541198211172696380,,53968,,1541198211,172496802,'',14.1000003815,0.0,1552.0
1541198211181103531,,53969,,1541198211,180998176,'',14.1000003815,0.0,1550.0
1541198211194400699,,53970,,1541198211,194253469,'',14.1000003815,0.0,1552.0
1541198211201486162,,53971,,1541198211,201335493,'',14.1000003815,0.0,1552.0
1541198211212627725,,53972,,1541198211,212505604,'',14.1000003815,0.0,1552.0
1541198211221147325,,53973,,1541198211,221015512,'',14.1000003815,0.0,1550.0
1541198211233217685,,53974,,1541198211,233066319,'',14.1000003815,0.0,1550.0
1541198211241304627,,53975,,1541198211,241209841,'',14.1000003815,0.0,1550.0
1541198211253015967,,53976,,1541198211,252716722,'',14.1000003815,0.0,1550.0
1541198211261946303,,53977,,1541198211,261808082,'',14.1000003815,0.0,1550.0
1541198211273241493,,53978,,1541198211,273093676,'',14.1000003815,0.0,1554.0
1541198211281289821,,53979,,1541198211,281152926,'',14.1000003815,0.0,1554.0
1541198211293888924,,53980,,1541198211,293732766,'',14.1000003815,0.0,1556.0
1541198211301080042,,53981,,1541198211,300973703,'',13.6999998093,-0.0399999991059,1556.0
1541198211312699914,,53982,,1541198211,312523059,'',13.6999998093,0.0,1560.0
1541198211321785616,,53983,,1541198211,321620211,'',13.3000001907,-0.0399999991059,1560.0
1541198211332757150,,53984,,1541198211,332547645,'',12.8000001907,-0.0799999982119,1562.0
1541198211341766062,,53985,,1541198211,341615356,'',12.8000001907,0.0,1566.0
1541198211352532121,,53986,,1541198211,352340686,'',12.3999996185,-0.0799999982119,1566.0
1541198211361511601,,53987,,1541198211,361379205,'',12.1000003815,-0.0399999991059,1566.0
1541198211373398798,,53988,,1541198211,373250368,'',12.1000003815,0.0,1566.0
1541198211381456835,,53989,,1541198211,381345602,'',12.0,-0.0399999991059,1570.0
1541198211394364521,,53990,,1541198211,394247099,'',11.8000001907,-0.0399999991059,1570.0
1541198211401461024,,53991,,1541198211,401333048,'',11.8000001907,0.0,1566.0
1541198211413684430,,53992,,1541198211,413523247,'',11.5,-0.0399999991059,1562.0
1541198211421133137,,53993,,1541198211,420990569,'',11.1999998093,-0.0399999991059,1560.0
1541198211433263355,,53994,,1541198211,433035935,'',11.1999998093,0.0,1554.0
1541198211441257106,,53995,,1541198211,441139279,'',10.6000003815,-0.0799999982119,1554.0
1541198211452829418,,53996,,1541198211,452715755,'',9.80000019073,-0.0799999982119,1548.0
1541198211462271767,,53997,,1541198211,461791732,'',9.80000019073,0.0,1546.0
1541198211472700432,,53998,,1541198211,472524731,'',8.80000019073,-0.119999997318,1538.0
1541198211481159539,,53999,,1541198211,481016285,'',7.80000019073,-0.119999997318,1538.0
1541198211494217002,,54000,,1541198211,494083796,'',7.80000019073,0.0,1530.0
1541198211501305966,,54001,,1541198211,501198009,'',6.59999990463,-0.119999997318,1524.0
1541198211513651382,,54002,,1541198211,513545946,'',5.40000009537,-0.119999997318,1516.0
1541198211521116814,,54003,,1541198211,521015212,'',5.40000009537,0.0,1516.0
1541198211533759815,,54004,,1541198211,533514151,'',4.19999980927,-0.159999996424,1510.0
1541198211541182704,,54005,,1541198211,541039450,'',3.09999990463,-0.119999997318,1506.0
1541198211553767896,,54006,,1541198211,553667199,'',3.09999990463,0.0,1498.0
1541198211561879170,,54007,,1541198211,561735403,'',2.5,-0.0799999982119,1498.0
1541198211573397911,,54008,,1541198211,573248998,'',2.09999990463,-0.0399999991059,1496.0
1541198211581615837,,54009,,1541198211,581475836,'',2.09999990463,0.0,1498.0
1541198211593683300,,54010,,1541198211,593533446,'',0.0,-0.239999994636,1500.0
1541198211601752869,,54011,,1541198211,601608631,'',0.0,0.0,1500.0
1541198211613658390,,54012,,1541198211,613561084,'',0.0,0.0,1502.0
1541198211621726378,,54013,,1541198211,621634180,'',0.0,0.0,1510.0
1541198211633568536,,54014,,1541198211,633252776,'',0.0,0.0,1512.0
1541198211641421423,,54015,,1541198211,641287154,'',0.0,0.0,1512.0
1541198211653552752,,54016,,1541198211,653450330,'',0.0,0.0,1516.0
1541198211661680309,,54017,,1541198211,661530414,'',0.0,0.0,1518.0
1541198211673400114,,54018,,1541198211,673270192,'',0.0,0.0,1520.0
1541198211681472913,,54019,,1541198211,681337407,'',0.0,0.0,1516.0
1541198211694294065,,54020,,1541198211,694164222,'',0.0,0.0,1516.0
1541198211702193629,,54021,,1541198211,702053015,'',0.0,0.0,1516.0
1541198211713628851,,54022,,1541198211,713526111,'',0.0,0.0,1506.0
1541198211722172324,,54023,,1541198211,722045817,'',0.0,0.0,1502.0
1541198211733480601,,54024,,1541198211,733261328,'',0.0,0.0,1502.0
1541198211741544768,,54025,,1541198211,741351170,'',0.0,0.0,1500.0
1541198211753790720,,54026,,1541198211,753646957,'',0.0,0.0,1498.0
1541198211762179733,,54027,,1541198211,762037141,'',0.0,0.0,1500.0
1541198211773721547,,54028,,1541198211,773577146,'',0.0,0.0,1500.0
1541198211781154507,,54029,,1541198211,781031711,'',0.0,0.0,1506.0
1541198211794322865,,54030,,1541198211,794209787,'',0.0,0.0,1508.0
1541198211801400357,,54031,,1541198211,801268164,'',0.0,0.0,1512.0
1541198211813645429,,54032,,1541198211,813545477,'',0.0,0.0,1512.0
1541198211821103086,,54033,,1541198211,821014204,'',0.0,0.0,1516.0
1541198211834590180,,54034,,1541198211,833599031,'',0.0,0.0,1516.0
1541198211841376936,,54035,,1541198211,841133779,'',0.0,0.0,1518.0
1541198211853241646,,54036,,1541198211,853068883,'',0.0,0.0,1518.0
1541198211861297354,,54037,,1541198211,861163227,'',0.0,0.0,1518.0
1541198211873414348,,54038,,1541198211,873269973,'',0.0,0.0,1512.0
1541198211881233133,,54039,,1541198211,881053272,'',0.0,0.0,1508.0
1541198211893743381,,54040,,1541198211,893609577,'',0.0,0.0,1508.0
1541198211901372879,,54041,,1541198211,901133075,'',0.0,0.0,1508.0
1541198211913649248,,54042,,1541198211,913528995,'',0.0,0.0,1502.0
1541198211921759960,,54043,,1541198211,921645103,'',0.0,0.0,1502.0
1541198211933526968,,54044,,1541198211,933305308,'',0.0,0.0,1502.0
1541198211941221714,,54045,,1541198211,941066726,'',0.0,0.0,1504.0
1541198211952390340,,54046,,1541198211,952256009,'',0.0,0.0,1500.0
1541198211961551267,,54047,,1541198211,961350369,'',0.0,0.0,1502.0
1541198211973255823,,54048,,1541198211,973080556,'',0.0,0.0,1502.0
1541198211981290261,,54049,,1541198211,981147663,'',0.0,0.0,1504.0
1541198211994381449,,54050,,1541198211,994199302,'',0.0,0.0,1502.0
1541198212001430868,,54051,,1541198212,1325011,'',0.0,0.0,1502.0
1541198212013677422,,54052,,1541198212,13532455,'',0.0,0.0,1502.0
1541198212021264435,,54053,,1541198212,21123884,'',0.0,0.0,1504.0
1541198212033551746,,54054,,1541198212,33180804,'',0.0,0.0,1500.0
1541198212041424916,,54055,,1541198212,41328452,'',0.0,0.0,1498.0
1541198212053728693,,54056,,1541198212,53592161,'',0.0,0.0,1498.0
1541198212061234557,,54057,,1541198212,61098285,'',0.0,0.0,1496.0
1541198212073330721,,54058,,1541198212,73178531,'',0.0,0.0,1490.0
1541198212081403287,,54059,,1541198212,81271900,'',0.0,0.0,1486.0
1541198212094233388,,54060,,1541198212,94087231,'',0.0,0.0,1486.0
1541198212101250247,,54061,,1541198212,101130109,'',0.0,0.0,1480.0
1541198212113642172,,54062,,1541198212,113542980,'',0.0,0.0,1470.0
1541198212121246793,,54063,,1541198212,121097739,'',0.0,0.0,1458.0
1541198212133449976,,54064,,1541198212,133229665,'',0.0,0.0,1458.0
1541198212141651022,,54065,,1541198212,141370046,'',0.0,0.0,1448.0
1541198212153723239,,54066,,1541198212,153607462,'',0.0,0.0,1430.0
1541198212161919545,,54067,,1541198212,161703344,'',0.0,0.0,1430.0
1541198212173364124,,54068,,1541198212,173234628,'',0.0,0.0,1416.0
1541198212181205477,,54069,,1541198212,181097491,'',0.0,0.0,1396.0
1541198212194280169,,54070,,1541198212,194190562,'',0.0,0.0,1372.0
1541198212201412396,,54071,,1541198212,201270257,'',0.0,0.0,1372.0
1541198212213649216,,54072,,1541198212,213547249,'',0.0,0.0,1348.0
1541198212221742895,,54073,,1541198212,221644630,'',0.0,0.0,1328.0
1541198212233660477,,54074,,1541198212,233209590,'',0.0,0.0,1328.0
1541198212241406100,,54075,,1541198212,241261997,'',0.0,0.0,1306.0
1541198212253158975,,54076,,1541198212,253049713,'',0.0,0.0,1306.0
1541198212261388028,,54077,,1541198212,261191875,'',0.0,0.0,1284.0
1541198212273396178,,54078,,1541198212,273246509,'',0.0,0.0,1268.0
1541198212281463757,,54079,,1541198212,281320238,'',0.0,0.0,1268.0
1541198212293792815,,54080,,1541198212,293648125,'',0.0,0.0,1244.0
1541198212301186012,,54081,,1541198212,301075970,'',0.0,0.0,1218.0
1541198212313336700,,54082,,1541198212,313208354,'',0.0,0.0,1218.0
1541198212321184615,,54083,,1541198212,321092334,'',0.0,0.0,1190.0
1541198212333632252,,54084,,1541198212,333322973,'',0.0,0.0,1190.0
1541198212341465681,,54085,,1541198212,341360412,'',0.0,0.0,1160.0
1541198212353299693,,54086,,1541198212,353189852,'',0.0,0.0,1160.0
1541198212361433355,,54087,,1541198212,361300038,'',0.0,0.0,1138.0
1541198212373677824,,54088,,1541198212,373570420,'',0.0,0.0,1126.0
1541198212381210833,,54089,,1541198212,381071687,'',0.0,0.0,1126.0
1541198212394371878,,54090,,1541198212,394262204,'',0.0,0.0,1118.0
1541198212401536549,,54091,,1541198212,401391910,'',0.0,0.0,1118.0
1541198212413355126,,54092,,1541198212,413212358,'',0.0,0.0,1112.0
1541198212421232188,,54093,,1541198212,421078717,'',0.0,0.0,1112.0
1541198212433308929,,54094,,1541198212,433070723,'',0.0,0.0,1108.0
1541198212441239714,,54095,,1541198212,441112642,'',0.0,0.0,1108.0
1541198212453724576,,54096,,1541198212,453599380,'',0.0,0.0,1110.0
1541198212461876038,,54097,,1541198212,461717020,'',0.0,0.0,1130.0
1541198212473262079,,54098,,1541198212,473084955,'',0.0,0.0,1130.0
1541198212481292244,,54099,,1541198212,481145425,'',0.0,0.0,1160.0
1541198212494246618,,54100,,1541198212,494061945,'',0.0,0.0,1160.0
1541198212501256760,,54101,,1541198212,501131881,'',0.0,0.0,1186.0
1541198212513688605,,54102,,1541198212,513570206,'',0.0,0.0,1198.0
1541198212521228552,,54103,,1541198212,521126328,'',0.0,0.0,1198.0
1541198212533442087,,54104,,1541198212,533192621,'',0.0,0.0,1198.0
1541198212541322078,,54105,,1541198212,541150676,'',0.0,0.0,1198.0
1541198212553726955,,54106,,1541198212,553630212,'',0.0,0.0,1190.0
1541198212561284032,,54107,,1541198212,561124303,'',0.0,0.0,1184.0
1541198212573289170,,54108,,1541198212,573186165,'',0.0,0.0,1184.0
1541198212581402076,,54109,,1541198212,581284374,'',0.0,0.0,1176.0
1541198212594252270,,54110,,1541198212,594134127,'',0.0,0.0,1176.0
1541198212601314137,,54111,,1541198212,601212841,'',0.0,0.0,1166.0
1541198212613178752,,54112,,1541198212,613073200,'',0.0,0.0,1166.0
1541198212621266067,,54113,,1541198212,621132316,'',0.0,0.0,1164.0
1541198212633419901,,54114,,1541198212,633185246,'',0.0,0.0,1154.0
1541198212641380698,,54115,,1541198212,641254573,'',0.0,0.0,1154.0
1541198212653128488,,54116,,1541198212,653011891,'',0.0,0.0,1142.0
1541198212661413757,,54117,,1541198212,661154956,'',0.0,0.0,1142.0
1541198212673374852,,54118,,1541198212,673210642,'',0.0,0.0,1136.0
1541198212681280635,,54119,,1541198212,681141452,'',0.0,0.0,1136.0
1541198212694318633,,54120,,1541198212,694157136,'',0.0,0.0,1132.0
1541198212701367334,,54121,,1541198212,701249020,'',0.0,0.0,1126.0
1541198212713116574,,54122,,1541198212,713030437,'',0.0,0.0,1126.0
1541198212721280667,,54123,,1541198212,721150393,'',0.0,0.0,1122.0
1541198212733517748,,54124,,1541198212,733280109,'',0.0,0.0,1122.0
1541198212741293449,,54125,,1541198212,741168129,'',0.0,0.0,1120.0
1541198212753105661,,54126,,1541198212,752979289,'',0.0,0.0,1120.0
1541198212761297723,,54127,,1541198212,761151965,'',0.0,0.0,1128.0
1541198212773415580,,54128,,1541198212,773273581,'',0.0,0.0,1142.0
1541198212781284223,,54129,,1541198212,781148641,'',0.0,0.0,1142.0
1541198212794349607,,54130,,1541198212,794214215,'',0.0,0.0,1158.0
1541198212801477261,,54131,,1541198212,801320293,'',0.0,0.0,1158.0
1541198212813199075,,54132,,1541198212,813091775,'',0.0,0.0,1164.0
1541198212821743656,,54133,,1541198212,821573893,'',0.0,0.0,1164.0
1541198212833397643,,54134,,1541198212,833290683,'',0.0,0.0,1168.0
1541198212841265838,,54135,,1541198212,841162484,'',0.0,0.0,1164.0
1541198212853037603,,54136,,1541198212,852910960,'',0.0,0.0,1164.0
1541198212861372707,,54137,,1541198212,861186668,'',0.0,0.0,1156.0
1541198212873393200,,54138,,1541198212,873267873,'',0.0,0.0,1156.0
1541198212881533068,,54139,,1541198212,881387841,'',0.0,0.0,1148.0
1541198212894369578,,54140,,1541198212,894237210,'',0.0,0.0,1142.0
1541198212901496687,,54141,,1541198212,901398124,'',0.0,0.0,1142.0
1541198212913220005,,54142,,1541198212,913100482,'',0.0,0.0,1134.0
1541198212921352726,,54143,,1541198212,921207505,'',0.0,0.0,1134.0
1541198212933146298,,54144,,1541198212,933033575,'',0.0,0.0,1128.0
1541198212941694378,,54145,,1541198212,941493546,'',0.0,0.0,1128.0
1541198212953123967,,54146,,1541198212,952899267,'',0.0,0.0,1128.0
1541198212961234327,,54147,,1541198212,960991995,'',0.0,0.0,1128.0
1541198212973112151,,54148,,1541198212,973018956,'',0.0,0.0,1130.0
1541198212981320098,,54149,,1541198212,981184239,'',0.0,0.0,1140.0
1541198212994172988,,54150,,1541198212,994023872,'',0.0,0.0,1140.0
1541198213001306115,,54151,,1541198213,1175919,'',0.0,0.0,1152.0
1541198213013370053,,54152,,1541198213,13229780,'',0.0,0.0,1152.0
1541198213021289112,,54153,,1541198213,21152056,'',0.0,0.0,1162.0
1541198213033316101,,54154,,1541198213,33203288,'',0.0,0.0,1168.0
1541198213041388914,,54155,,1541198213,41194788,'',0.0,0.0,1168.0
1541198213053031498,,54156,,1541198213,52908281,'',0.0,0.0,1166.0
1541198213061658101,,54157,,1541198213,61238127,'',0.0,0.0,1166.0
1541198213073276162,,54158,,1541198213,73144087,'',0.0,0.0,1154.0
1541198213081400524,,54159,,1541198213,81237913,'',0.0,0.0,1154.0
1541198213094197443,,54160,,1541198213,94074363,'',0.0,0.0,1138.0
1541198213101319256,,54161,,1541198213,101212829,'',0.0,0.0,1128.0
1541198213112803724,,54162,,1541198213,112680204,'',0.0,0.0,1128.0
1541198213121304386,,54163,,1541198213,121194081,'',0.0,0.0,1124.0
1541198213133403589,,54164,,1541198213,133177447,'',0.0,0.0,1124.0
1541198213141431088,,54165,,1541198213,141236382,'',0.0,0.0,1126.0
1541198213152912480,,54166,,1541198213,152795373,'',0.0,0.0,1126.0
1541198213161337089,,54167,,1541198213,161186786,'',0.0,0.0,1130.0
1541198213173393327,,54168,,1541198213,173228903,'',0.0,0.0,1130.0
1541198213181672656,,54169,,1541198213,181544834,'',0.0,0.0,1134.0
1541198213194215351,,54170,,1541198213,194072955,'',0.0,0.0,1144.0
1541198213201267270,,54171,,1541198213,201181919,'',0.0,0.0,1144.0
1541198213213581863,,54172,,1541198213,213454998,'',0.0,0.0,1150.0
1541198213221346969,,54173,,1541198213,221218761,'',0.0,0.0,1150.0
1541198213233506497,,54174,,1541198213,233288250,'',0.0,0.0,1148.0
1541198213241488849,,54175,,1541198213,241362535,'',0.0,0.0,1142.0
1541198213252901285,,54176,,1541198213,252800819,'',0.0,0.0,1142.0
1541198213261344234,,54177,,1541198213,261204542,'',0.0,0.0,1134.0
1541198213273350823,,54178,,1541198213,273225701,'',0.0,0.0,1134.0
1541198213281330402,,54179,,1541198213,281189096,'',0.0,0.0,1124.0
1541198213293893685,,54180,,1541198213,293663506,'',0.0,0.0,1124.0
1541198213301843667,,54181,,1541198213,301722479,'',0.0,0.0,1122.0
1541198213313462421,,54182,,1541198213,313371815,'',0.0,0.0,1122.0
1541198213321349947,,54183,,1541198213,321218280,'',0.0,0.0,1126.0
1541198213333356507,,54184,,1541198213,333142708,'',0.0,0.0,1128.0
1541198213341369169,,54185,,1541198213,341244781,'',0.0,0.0,1128.0
1541198213352895186,,54186,,1541198213,352764071,'',0.0,0.0,1130.0
1541198213362015091,,54187,,1541198213,361857768,'',0.0,0.0,1130.0
1541198213373221464,,54188,,1541198213,373108495,'',0.0,0.0,1134.0
1541198213381826186,,54189,,1541198213,381680711,'',0.0,0.0,1134.0
1541198213394418316,,54190,,1541198213,394095633,'',0.0,0.0,1130.0
1541198213401436096,,54191,,1541198213,401245104,'',0.0,0.0,1130.0
1541198213413362274,,54192,,1541198213,413253532,'',0.0,0.0,1130.0
1541198213421736125,,54193,,1541198213,421572675,'',0.0,0.0,1128.0
1541198213433248071,,54194,,1541198213,433131072,'',0.0,0.0,1128.0
1541198213441506645,,54195,,1541198213,441271622,'',0.0,0.0,1128.0
1541198213452929466,,54196,,1541198213,452772939,'',0.0,0.0,1128.0
1541198213461355095,,54197,,1541198213,461218089,'',0.0,0.0,1134.0
1541198213473359842,,54198,,1541198213,473232304,'',0.0,0.0,1134.0
1541198213481451489,,54199,,1541198213,481329545,'',0.0,0.0,1134.0
1541198213495252734,,54200,,1541198213,495088106,'',0.0,0.0,1126.0
1541198213501377035,,54201,,1541198213,501246602,'',0.0,0.0,1126.0
1541198213513340629,,54202,,1541198213,513220380,'',0.0,0.0,1122.0
1541198213521441521,,54203,,1541198213,521259843,'',0.0,0.0,1122.0
1541198213533354918,,54204,,1541198213,533177464,'',0.0,0.0,1126.0
1541198213541447775,,54205,,1541198213,541294077,'',0.0,0.0,1126.0
1541198213553837621,,54206,,1541198213,553702714,'',0.0,0.0,1126.0
1541198213561747339,,54207,,1541198213,561314833,'',0.0,0.0,1126.0
1541198213573412192,,54208,,1541198213,573270269,'',0.0,0.0,1126.0
1541198213581347210,,54209,,1541198213,581205785,'',0.0,0.0,1130.0
1541198213594529363,,54210,,1541198213,594238152,'',0.0,0.0,1130.0
1541198213601433294,,54211,,1541198213,601324021,'',0.0,0.0,1130.0
1541198213613300460,,54212,,1541198213,613129648,'',0.0,0.0,1130.0
1541198213621392317,,54213,,1541198213,621234625,'',0.0,0.0,1128.0
1541198213633334261,,54214,,1541198213,633217825,'',0.0,0.0,1124.0
1541198213641334039,,54215,,1541198213,641218899,'',0.0,0.0,1124.0
1541198213653419742,,54216,,1541198213,652848764,'',0.0,0.0,1122.0
1541198213661369954,,54217,,1541198213,661224810,'',0.0,0.0,1122.0
1541198213673187293,,54218,,1541198213,673060674,'',0.0,0.0,1120.0
1541198213681368760,,54219,,1541198213,681231232,'',0.0,0.0,1120.0
1541198213694361807,,54220,,1541198213,694209929,'',0.0,0.0,1118.0
1541198213701529585,,54221,,1541198213,701370464,'',0.0,0.0,1118.0
1541198213713317341,,54222,,1541198213,713234915,'',0.0,0.0,1112.0
1541198213721406818,,54223,,1541198213,721251339,'',0.0,0.0,1110.0
1541198213733209124,,54224,,1541198213,733052255,'',0.0,0.0,1110.0
1541198213741362145,,54225,,1541198213,741227437,'',0.0,0.0,1110.0
1541198213752929193,,54226,,1541198213,752769825,'',0.0,0.0,1110.0
1541198213761588751,,54227,,1541198213,761266790,'',0.0,0.0,1108.0
1541198213773130884,,54228,,1541198213,773026081,'',0.0,0.0,1108.0
1541198213781376279,,54229,,1541198213,781234149,'',0.0,0.0,1108.0
1541198213795078285,,54230,,1541198213,794333574,'',0.0,0.0,1108.0
1541198213801489060,,54231,,1541198213,801385714,'',0.0,0.0,1108.0
1541198213813335944,,54232,,1541198213,813229841,'',0.0,0.0,1104.0
1541198213821413665,,54233,,1541198213,821246507,'',0.0,0.0,1104.0
1541198213833217168,,54234,,1541198213,833035582,'',0.0,0.0,1104.0
1541198213841471867,,54235,,1541198213,841283411,'',0.0,0.0,1104.0
1541198213853124826,,54236,,1541198213,852802389,'',0.0,0.0,1104.0
1541198213861484067,,54237,,1541198213,861277710,'',0.0,0.0,1104.0
1541198213873275894,,54238,,1541198213,873090224,'',0.0,0.0,1106.0
1541198213881875083,,54239,,1541198213,881733328,'',0.0,0.0,1106.0
1541198213894400241,,54240,,1541198213,894078382,'',0.0,0.0,1104.0
1541198213901385411,,54241,,1541198213,901268830,'',0.0,0.0,1104.0
1541198213913362030,,54242,,1541198213,913250375,'',0.0,0.0,1104.0
1541198213921399409,,54243,,1541198213,921249537,'',0.0,0.0,1104.0
1541198213933235982,,54244,,1541198213,933113381,'',0.0,0.0,1104.0
1541198213941491909,,54245,,1541198213,941293573,'',0.0,0.0,1104.0
1541198213952993466,,54246,,1541198213,952792369,'',0.0,0.0,1104.0
1541198213961985662,,54247,,1541198213,961870630,'',0.0,0.0,1104.0
1541198213973363200,,54248,,1541198213,973129774,'',0.0,0.0,1104.0
1541198213981422340,,54249,,1541198213,981258422,'',0.0,0.0,1100.0
1541198213994792500,,54250,,1541198213,994208178,'',0.0,0.0,1100.0
1541198214001442391,,54251,,1541198214,1267527,'',0.0,0.0,1096.0
1541198214013137584,,54252,,1541198214,13043177,'',0.0,0.0,1094.0
1541198214021380067,,54253,,1541198214,21258308,'',0.0,0.0,1094.0
1541198214033505592,,54254,,1541198214,33283027,'',0.0,0.0,1086.0
1541198214041575400,,54255,,1541198214,41387931,'',0.0,0.0,1086.0
1541198214052858981,,54256,,1541198214,52757503,'',0.0,0.0,1088.0
1541198214061512320,,54257,,1541198214,61288181,'',0.0,0.0,1088.0
1541198214073448026,,54258,,1541198214,73273055,'',0.0,0.0,1090.0
1541198214081477075,,54259,,1541198214,81344078,'',0.0,0.0,1090.0
1541198214094494397,,54260,,1541198214,94240923,'',0.0,0.0,1084.0
1541198214101482949,,54261,,1541198214,101297764,'',0.0,0.0,1084.0
1541198214113187832,,54262,,1541198214,113059539,'',0.0,0.0,1078.0
1541198214121405952,,54263,,1541198214,121278885,'',0.0,0.0,1078.0
1541198214132955404,,54264,,1541198214,132759993,'',0.0,0.0,1078.0
1541198214141447589,,54265,,1541198214,141277271,'',0.0,0.0,1080.0
1541198214153292885,,54266,,1541198214,153152681,'',0.0,0.0,1080.0
1541198214161429088,,54267,,1541198214,161272731,'',0.0,0.0,1078.0
1541198214173379984,,54268,,1541198214,173267007,'',0.0,0.0,1078.0
1541198214181440363,,54269,,1541198214,181299367,'',0.0,0.0,1074.0
1541198214194458166,,54270,,1541198214,194262344,'',0.0,0.0,1074.0
1541198214201482867,,54271,,1541198214,201338522,'',0.0,0.0,1072.0
1541198214213190629,,54272,,1541198214,213106303,'',0.0,0.0,1072.0
1541198214221393060,,54273,,1541198214,221265296,'',0.0,0.0,1078.0
1541198214233102635,,54274,,1541198214,232996635,'',0.0,0.0,1078.0
1541198214241399206,,54275,,1541198214,241300994,'',0.0,0.0,1078.0
1541198214252938148,,54276,,1541198214,252792271,'',0.0,0.0,1072.0
1541198214261436238,,54277,,1541198214,261302595,'',0.0,0.0,1072.0
1541198214273251944,,54278,,1541198214,273066978,'',0.0,0.0,1068.0
1541198214281458850,,54279,,1541198214,281284142,'',0.0,0.0,1068.0
1541198214294516422,,54280,,1541198214,294295205,'',0.0,0.0,1074.0
1541198214301539692,,54281,,1541198214,301366626,'',0.0,0.0,1074.0
1541198214313337287,,54282,,1541198214,313214527,'',0.0,0.0,1074.0
1541198214321452748,,54283,,1541198214,321301411,'',0.0,0.0,1074.0
1541198214333350613,,54284,,1541198214,333190304,'',0.0,0.0,1068.0
1541198214341468638,,54285,,1541198214,341314069,'',0.0,0.0,1068.0
1541198214353673365,,54286,,1541198214,353031872,'',0.0,0.0,1066.0
1541198214361703890,,54287,,1541198214,361373220,'',0.0,0.0,1066.0
1541198214373356313,,54288,,1541198214,373227779,'',0.0,0.0,1062.0
1541198214381430992,,54289,,1541198214,381309968,'',0.0,0.0,1062.0
1541198214394484598,,54290,,1541198214,394218111,'',0.0,0.0,1064.0
1541198214401438977,,54291,,1541198214,401275601,'',0.0,0.0,1064.0
1541198214413150358,,54292,,1541198214,412999338,'',0.0,0.0,1064.0
1541198214421437497,,54293,,1541198214,421296543,'',0.0,0.0,1060.0
1541198214433334774,,54294,,1541198214,433201398,'',0.0,0.0,1060.0
1541198214441518333,,54295,,1541198214,441379597,'',0.0,0.0,1060.0
1541198214453055995,,54296,,1541198214,452831040,'',0.0,0.0,1060.0
1541198214461510512,,54297,,1541198214,461362567,'',0.0,0.0,1058.0
1541198214473383594,,54298,,1541198214,473258388,'',0.0,0.0,1058.0
1541198214481443221,,54299,,1541198214,481301514,'',0.0,0.0,1054.0
1541198214494445085,,54300,,1541198214,494185936,'',0.0,0.0,1054.0
1541198214501324334,,54301,,1541198214,501197565,'',0.0,0.0,1048.0
1541198214513564688,,54302,,1541198214,513454637,'',0.0,0.0,1048.0
1541198214521701566,,54303,,1541198214,521399720,'',0.0,0.0,1042.0
1541198214533145771,,54304,,1541198214,533027143,'',0.0,0.0,1042.0
1541198214541525925,,54305,,1541198214,541308234,'',0.0,0.0,1034.0
1541198214553234984,,54306,,1541198214,552859132,'',0.0,0.0,1034.0
1541198214562095595,,54307,,1541198214,561938936,'',0.0,0.0,1028.0
1541198214573139234,,54308,,1541198214,573029755,'',0.0,0.0,1028.0
1541198214581447480,,54309,,1541198214,581298422,'',0.0,0.0,1024.0
1541198214594355006,,54310,,1541198214,594234875,'',0.0,0.0,1024.0
1541198214601390973,,54311,,1541198214,601314030,'',0.0,0.0,1022.0
1541198214613280132,,54312,,1541198214,613150540,'',0.0,0.0,1022.0
1541198214621433342,,54313,,1541198214,621329322,'',0.0,0.0,1020.0
1541198214633350504,,54314,,1541198214,633243238,'',0.0,0.0,1024.0
1541198214641587411,,54315,,1541198214,641428168,'',0.0,0.0,1024.0
1541198214653229030,,54316,,1541198214,652900066,'',0.0,0.0,1026.0
1541198214661459989,,54317,,1541198214,661337916,'',0.0,0.0,1026.0
1541198214673243031,,54318,,1541198214,673093381,'',0.0,0.0,1028.0
1541198214681474910,,54319,,1541198214,681331149,'',0.0,0.0,1028.0
1541198214694487649,,54320,,1541198214,694268754,'',0.0,0.0,1028.0
1541198214701450949,,54321,,1541198214,701339945,'',0.0,0.0,1028.0
1541198214713297406,,54322,,1541198214,713211307,'',0.0,0.0,1020.0
1541198214721516648,,54323,,1541198214,721367041,'',0.0,0.0,1020.0
1541198214733412095,,54324,,1541198214,733262575,'',0.0,0.0,1016.0
1541198214741572400,,54325,,1541198214,741394531,'',0.0,0.0,1016.0
1541198214753314582,,54326,,1541198214,752917300,'',0.0,0.0,1014.0
1541198214761523941,,54327,,1541198214,761356458,'',0.0,0.0,1014.0
1541198214773290320,,54328,,1541198214,773119570,'',0.0,0.0,1008.0
1541198214781483419,,54329,,1541198214,781327728,'',0.0,0.0,1008.0
1541198214794622797,,54330,,1541198214,794269684,'',0.0,0.0,1002.0
1541198214801276262,,54331,,1541198214,801122754,'',0.0,0.0,1002.0
1541198214813327667,,54332,,1541198214,813230593,'',0.0,0.0,1002.0
1541198214821474760,,54333,,1541198214,821357277,'',0.0,0.0,1002.0
1541198214833246071,,54334,,1541198214,833089208,'',0.0,0.0,1000.0
1541198214842236445,,54335,,1541198214,841447223,'',0.0,0.0,1000.0
1541198214852984773,,54336,,1541198214,852840439,'',0.0,0.0,1000.0
1541198214861489970,,54337,,1541198214,861345189,'',0.0,0.0,1000.0
1541198214873337145,,54338,,1541198214,873179997,'',0.0,0.0,998.0
1541198214881470222,,54339,,1541198214,881350378,'',0.0,0.0,998.0
1541198214894223246,,54340,,1541198214,894068786,'',0.0,0.0,1002.0
1541198214901533297,,54341,,1541198214,901345936,'',0.0,0.0,1002.0
1541198214913352989,,54342,,1541198214,913256237,'',0.0,0.0,1004.0
1541198214921509402,,54343,,1541198214,921364800,'',0.0,0.0,1004.0
1541198214933263791,,54344,,1541198214,933131873,'',0.0,0.0,1004.0
1541198214941592955,,54345,,1541198214,941411870,'',0.0,0.0,1004.0
1541198214952976198,,54346,,1541198214,952840131,'',0.0,0.0,1008.0
1541198214962220411,,54347,,1541198214,961970649,'',0.0,0.0,1008.0
1541198214973402410,,54348,,1541198214,973269456,'',0.0,0.0,1012.0
1541198214981469670,,54349,,1541198214,981330652,'',0.0,0.0,1012.0
1541198214994380186,,54350,,1541198214,994174218,'',0.0,0.0,1012.0
1541198215001487768,,54351,,1541198215,1333427,'',0.0,0.0,1012.0
1541198215013242137,,54352,,1541198215,13147546,'',0.0,0.0,1004.0
1541198215021445937,,54353,,1541198215,21325892,'',0.0,0.0,1004.0
1541198215033469909,,54354,,1541198215,33280308,'',0.0,0.0,998.0
1541198215041580221,,54355,,1541198215,41408968,'',0.0,0.0,998.0
1541198215053012087,,54356,,1541198215,52857763,'',0.0,0.0,996.0
1541198215061880718,,54357,,1541198215,61439963,'',0.0,0.0,996.0
1541198215073393398,,54358,,1541198215,73288517,'',0.0,0.0,988.0
1541198215081529821,,54359,,1541198215,81377769,'',0.0,0.0,988.0
1541198215095035893,,54360,,1541198215,94541988,'',0.0,0.0,990.0
1541198215101538050,,54361,,1541198215,101415005,'',0.0,0.0,990.0
1541198215113308735,,54362,,1541198215,113224632,'',0.0,0.0,994.0
1541198215121521367,,54363,,1541198215,121384363,'',0.0,0.0,994.0
1541198215133138265,,54364,,1541198215,133021640,'',0.0,0.0,994.0
1541198215141592107,,54365,,1541198215,141462251,'',0.0,0.0,994.0
1541198215153235766,,54366,,1541198215,152942912,'',0.0,0.0,990.0
1541198215161575369,,54367,,1541198215,161387897,'',0.0,0.0,990.0
1541198215173294758,,54368,,1541198215,173108309,'',0.0,0.0,988.0
1541198215181959326,,54369,,1541198215,181839531,'',0.0,0.0,988.0
1541198215198244404,,54370,,1541198215,194216764,'',0.0,0.0,982.0
1541198215201579688,,54371,,1541198215,201398605,'',0.0,0.0,982.0
1541198215213392058,,54372,,1541198215,213251415,'',0.0,0.0,974.0
1541198215221552116,,54373,,1541198215,221402237,'',0.0,0.0,974.0
1541198215233220232,,54374,,1541198215,233107220,'',0.0,0.0,970.0
1541198215241566449,,54375,,1541198215,241384806,'',0.0,0.0,970.0
1541198215253081313,,54376,,1541198215,252897295,'',0.0,0.0,962.0
1541198215261481098,,54377,,1541198215,261369561,'',0.0,0.0,962.0
1541198215273263963,,54378,,1541198215,273110767,'',0.0,0.0,962.0
1541198215281514156,,54379,,1541198215,281391550,'',0.0,0.0,952.0
1541198215294418097,,54380,,1541198215,294154128,'',0.0,0.0,952.0
1541198215301518415,,54381,,1541198215,301413134,'',0.0,0.0,940.0
1541198215313170331,,54382,,1541198215,313045337,'',0.0,0.0,940.0
1541198215321515578,,54383,,1541198215,321416567,'',0.0,0.0,926.0
1541198215333335606,,54384,,1541198215,333244847,'',0.0,0.0,926.0
1541198215341584428,,54385,,1541198215,341402811,'',0.0,0.0,910.0
1541198215353384114,,54386,,1541198215,352899431,'',0.0,0.0,910.0
1541198215361625074,,54387,,1541198215,361425339,'',0.0,0.0,902.0
1541198215373133563,,54388,,1541198215,373000687,'',0.0,0.0,902.0
1541198215381548161,,54389,,1541198215,381390634,'',0.0,0.0,892.0
1541198215394546708,,54390,,1541198215,394329022,'',0.0,0.0,892.0
1541198215401559841,,54391,,1541198215,401397408,'',0.0,0.0,892.0
1541198215413051046,,54392,,1541198215,412909234,'',0.0,0.0,882.0
1541198215421535658,,54393,,1541198215,421412437,'',0.0,0.0,882.0
1541198215433181780,,54394,,1541198215,433085844,'',0.0,0.0,874.0
1541198215441614407,,54395,,1541198215,441429322,'',0.0,0.0,874.0
1541198215453417020,,54396,,1541198215,453052386,'',0.0,0.0,864.0
1541198215462105691,,54397,,1541198215,461968311,'',0.0,0.0,864.0
1541198215473164715,,54398,,1541198215,473068209,'',0.0,0.0,864.0
1541198215481527095,,54399,,1541198215,481409707,'',0.0,0.0,860.0
1541198215494238557,,54400,,1541198215,494060056,'',0.0,0.0,860.0
1541198215501527005,,54401,,1541198215,501395155,'',0.0,0.0,858.0
1541198215513372876,,54402,,1541198215,513259642,'',0.0,0.0,858.0
1541198215521504848,,54403,,1541198215,521400503,'',0.0,0.0,852.0
1541198215533299799,,54404,,1541198215,533179629,'',0.0,0.0,852.0
1541198215541575805,,54405,,1541198215,541450810,'',0.0,0.0,852.0
1541198215553011009,,54406,,1541198215,552896386,'',0.0,0.0,848.0
1541198215561537730,,54407,,1541198215,561425744,'',0.0,0.0,848.0
1541198215573337527,,54408,,1541198215,573207286,'',0.0,0.0,850.0
1541198215581570012,,54409,,1541198215,581437816,'',0.0,0.0,850.0
1541198215594592033,,54410,,1541198215,594249883,'',0.0,0.0,852.0
1541198215601652253,,54411,,1541198215,601448046,'',0.0,0.0,852.0
1541198215613370796,,54412,,1541198215,613260225,'',0.0,0.0,852.0
1541198215621718850,,54413,,1541198215,621410178,'',0.0,0.0,854.0
1541198215633435705,,54414,,1541198215,633264239,'',0.0,0.0,854.0
1541198215641649874,,54415,,1541198215,641455315,'',0.0,0.0,854.0
1541198215653004235,,54416,,1541198215,652871972,'',0.0,0.0,854.0
1541198215661996022,,54417,,1541198215,661512289,'',0.0,0.0,852.0
1541198215673409566,,54418,,1541198215,673260030,'',0.0,0.0,852.0
1541198215681986733,,54419,,1541198215,681827225,'',0.0,0.0,852.0
1541198215694466112,,54420,,1541198215,694242835,'',0.0,0.0,848.0
1541198215795799419,,54421,,1541198215,795027363,'',0.0,0.0,848.0
1541198215795808291,,54422,,1541198215,795115181,'',0.0,0.0,842.0
1541198215795981968,,54423,,1541198215,795202837,'',0.0,0.0,842.0
1541198215795987449,,54425,,1541198215,795351346,'',0.0,0.0,838.0
1541198215795990606,,54426,,1541198215,795446243,'',0.0,0.0,838.0
1541198215796050932,,54427,,1541198215,795541944,'',0.0,0.0,838.0
1541198215796054567,,54428,,1541198215,795613963,'',0.0,0.0,838.0
1541198215796283992,,54429,,1541198215,795690876,'',0.0,0.0,838.0
1541198215796288214,,54430,,1541198215,795772985,'',0.0,0.0,838.0
1541198215801618224,,54431,,1541198215,801469476,'',0.0,0.0,838.0
1541198215813203687,,54432,,1541198215,813099368,'',0.0,0.0,838.0
1541198215821850075,,54433,,1541198215,821690475,'',0.0,0.0,838.0
1541198215833252187,,54434,,1541198215,833096035,'',0.0,0.0,840.0
1541198215841568262,,54435,,1541198215,841457560,'',0.0,0.0,840.0
1541198215853043116,,54436,,1541198215,852928726,'',0.0,0.0,844.0
1541198215861836736,,54437,,1541198215,861468444,'',0.0,0.0,844.0
1541198215873294863,,54438,,1541198215,873097928,'',0.0,0.0,844.0
1541198215881629578,,54439,,1541198215,881502514,'',0.0,0.0,844.0
1541198215894433264,,54440,,1541198215,894253280,'',0.0,0.0,844.0
1541198215901634510,,54441,,1541198215,901476815,'',0.0,0.0,840.0
1541198215913255237,,54442,,1541198215,913170701,'',0.0,0.0,840.0
1541198215921603369,,54443,,1541198215,921474528,'',0.0,0.0,840.0
1541198215933243373,,54444,,1541198215,933103548,'',0.0,0.0,836.0
1541198215941727148,,54445,,1541198215,941516427,'',0.0,0.0,836.0
1541198215952923167,,54446,,1541198215,952751395,'',0.0,0.0,832.0
1541198215962068006,,54447,,1541198215,961888638,'',0.0,0.0,832.0
1541198215973289544,,54448,,1541198215,973150541,'',0.0,0.0,832.0
1541198215981631223,,54449,,1541198215,981472827,'',0.0,0.0,832.0
1541198215994299039,,54450,,1541198215,994110413,'',0.0,0.0,832.0
1541198216001369288,,54451,,1541198216,1200392,'',0.0,0.0,824.0
1541198216013178486,,54452,,1541198216,13077480,'',0.0,0.0,824.0
1541198216021580413,,54453,,1541198216,21450736,'',0.0,0.0,816.0
1541198216034358101,,54454,,1541198216,34200750,'',0.0,0.0,816.0
1541198216041639321,,54455,,1541198216,41494373,'',0.0,0.0,816.0
1541198216053052723,,54456,,1541198216,52800430,'',0.0,0.0,810.0
1541198216061606349,,54457,,1541198216,61465339,'',0.0,0.0,810.0
1541198216074261315,,54458,,1541198216,74061235,'',0.0,0.0,806.0
1541198216081608932,,54459,,1541198216,81466369,'',0.0,0.0,806.0
1541198216094399670,,54460,,1541198216,94215187,'',0.0,0.0,806.0
1541198216101568697,,54461,,1541198216,101455730,'',0.0,0.0,806.0
1541198216114279280,,54462,,1541198216,114142954,'',0.0,0.0,806.0
1541198216121621866,,54463,,1541198216,121477696,'',0.0,0.0,808.0
1541198216133369414,,54464,,1541198216,133253865,'',0.0,0.0,808.0
1541198216141624372,,54465,,1541198216,141480682,'',0.0,0.0,808.0
1541198216153869584,,54466,,1541198216,153739202,'',0.0,0.0,804.0
1541198216161668195,,54467,,1541198216,161509956,'',0.0,0.0,804.0
1541198216174306828,,54468,,1541198216,174143715,'',0.0,0.0,796.0
1541198216181843848,,54469,,1541198216,181696564,'',0.0,0.0,796.0
1541198216194446235,,54470,,1541198216,194285438,'',0.0,0.0,796.0
1541198216201577673,,54471,,1541198216,201479833,'',0.0,0.0,796.0
1541198216213352933,,54472,,1541198216,213210239,'',0.0,0.0,796.0
1541198216221572446,,54473,,1541198216,221462933,'',0.0,0.0,796.0
1541198216234233398,,54474,,1541198216,234073903,'',0.0,0.0,796.0
1541198216241667481,,54475,,1541198216,241481888,'',0.0,0.0,796.0
1541198216254313432,,54476,,1541198216,254159374,'',0.0,0.0,794.0
1541198216261539023,,54477,,1541198216,261458028,'',0.0,0.0,794.0
1541198216274231134,,54478,,1541198216,274049475,'',0.0,0.0,792.0
1541198216281640748,,54479,,1541198216,281489586,'',0.0,0.0,792.0
1541198216294189368,,54480,,1541198216,294046986,'',0.0,0.0,792.0
1541198216301254543,,54481,,1541198216,301137961,'',0.0,0.0,788.0
1541198216313145362,,54482,,1541198216,313059190,'',0.0,0.0,788.0
1541198216321595582,,54483,,1541198216,321487157,'',0.0,0.0,782.0
1541198216333336381,,54484,,1541198216,333193441,'',0.0,0.0,782.0
1541198216341623369,,54485,,1541198216,341484591,'',0.0,0.0,782.0
1541198216352886205,,54486,,1541198216,352752319,'',0.0,0.0,774.0
1541198216361599624,,54487,,1541198216,361477453,'',0.0,0.0,774.0
1541198216373327849,,54488,,1541198216,373208488,'',0.0,0.0,768.0
1541198216381685779,,54489,,1541198216,381539825,'',0.0,0.0,768.0
1541198216394592268,,54490,,1541198216,394262705,'',0.0,0.0,768.0
1541198216401724614,,54491,,1541198216,401498679,'',0.0,0.0,766.0
1541198216413274862,,54492,,1541198216,413170332,'',0.0,0.0,766.0
1541198216421614151,,54493,,1541198216,421498201,'',0.0,0.0,766.0
1541198216433409145,,54494,,1541198216,433273561,'',0.0,0.0,766.0
1541198216441670133,,54495,,1541198216,441534283,'',0.0,0.0,766.0
1541198216452857793,,54496,,1541198216,452719687,'',0.0,0.0,766.0
1541198216461761480,,54497,,1541198216,461520628,'',0.0,0.0,766.0
1541198216473254804,,54498,,1541198216,473038620,'',0.0,0.0,766.0
1541198216481690061,,54499,,1541198216,481522582,'',0.0,0.0,762.0
